old_ethnic,FAMILY,DOUBTFUL,ETHNICITY,VARIANT,intersecti,persistent,persistenc,murdock_na,atlantic_n,atlantic_1,atlantic_2,atlantic_3,indian_num,indian_n_1,indian_n_2,indian_n_3,atlantic_a,indian_all,total_ensl,slave_trad,country,west_afric,area,num_coloni,Belgium,Britain,France,Germany,Independen,Italy,Portugal,Spain,gold_dep,diamonds,oil,neighbors,lat,lon,population_2014,population_2015,population_2016,population_2017,population_2018,malaria-pf,malaria-pv,surface
ZUMPER,Bantoid,NO,JUKUN,,44.97399228175971,0,16.513232532803947,ZUMPER,0.0,0.0,0.0,126.0,0.0,0.0,0.0,0.0,126.0,0.0,126.0,1,Nigeria,1.0,2429.7318184832748,2,0,1,0,1,0,0,0,0,0.0,0.0,0.0,4,7.255056189878326,10.127099146698024,231726.0,222369.0,214864.0,220486.0,235561.0,0.6329378073480024,0.7830096695361567,1.0
ZULU,Bantu,NO,KHUMALO,,77.78652060289912,0,0.0,ZULU,0.0,0.0,0.0,0.0,0.0,0.0,0.0,0.0,0.0,0.0,0.0,0,South Africa,0.0,89850.47925734644,1,0,1,0,0,0,0,0,0,0.0,1.0,0.0,6,-29.12318468868203,30.398918719586554,9574520.0,10616499.0,10744023.0,10809556.0,10896497.0,0.10825073017185298,0.206927614596452,6.0
"ZUANDE, BATU (E)",Bantoid,NO,NDOOLA,NDORO,45.00887139969535,0,0.0,"ZUANDE, BATU (E)",0.0,0.0,0.0,0.0,0.0,0.0,0.0,0.0,0.0,0.0,0.0,0,Nigeria,1.0,2672.8965527627515,1,0,1,0,0,0,0,0,0,0.0,0.0,0.0,5,7.335219852055642,11.128070680748138,67105.0,65550.0,63270.0,64784.0,69130.0,0.5664110598883858,0.7483540872259294,2.0
ZIMBA,Bantu,NO,SENA,,68.81320671019924,0,0.0,ZIMBA,0.0,0.0,0.0,0.0,0.0,0.0,0.0,0.0,0.0,0.0,0.0,0,Mozambique,0.0,19206.371014751316,2,0,1,0,0,0,0,1,0,0.0,0.0,0.0,6,-16.816274165587515,34.76872880295275,886261.0,943619.0,946222.0,937220.0,929478.0,0.5098018217503733,0.6651698539800597,1.0
ZIGULA,Bantu,NO,ZIGUA,,62.40781973201754,1,62.40781973201754,ZIGULA,0.0,0.0,0.0,0.0,1166.0,583.0,1252.0,1958.0,0.0,4959.0,4959.0,1,Tanzania,0.0,9763.616226599992,1,0,0,0,1,0,0,0,0,0.0,0.0,0.0,6,-5.487515913314503,38.16503272042413,566034.0,573465.0,581636.0,576480.0,575447.0,0.4645205964362698,0.6658638078895227,2.0
ZIBAN,"Semitic: Arab, Bedouin",NO,ZIBAN,,39.30703860645819,1,39.30703860645819,ZIBAN,0.0,0.0,0.0,0.0,0.0,0.0,0.0,0.0,0.0,0.0,0.0,0,Algeria,0.0,12127.0139153352,1,0,0,1,0,0,0,0,0,0.0,0.0,0.0,5,34.57954060027846,5.707389976663216,636906.0,651728.0,664435.0,675593.0,687001.0,0.16375493382653358,0.2276958522797744,1.0
ZEZURU,Bantu,NO,SHONA,,94.80927052037626,0,0.0,ZEZURU,0.0,0.0,0.0,0.0,0.0,0.0,0.0,0.0,0.0,0.0,0.0,0,Zimbabwe,0.0,56841.63227078672,1,0,1,0,0,0,0,0,0,31.0,0.0,0.0,4,-18.17522075747737,30.961636630207106,5136648.0,5302290.0,5409837.0,5131191.0,5210138.0,0.148136485091456,0.27316438607880167,1.0
ZERMA,Songhai,NO,ZARMA,DJERMA,86.9365703854457,0,0.0,ZERMA,0.0,0.0,0.0,0.0,0.0,0.0,0.0,0.0,0.0,0.0,0.0,0,Niger,1.0,44425.327963621945,2,0,1,1,0,0,0,0,0,1.0,0.0,0.0,9,13.58422043697584,2.723257858337937,3756019.0,3862342.0,3387602.0,3494093.0,3595205.0,0.35046350170752244,0.4374579332545846,1.0
ZENEGA,Berber,NO,ZENAGA,,55.13171540777484,1,55.13171540777484,ZENEGA,0.0,0.0,0.0,0.0,0.0,0.0,0.0,0.0,0.0,0.0,0.0,0,Mauritania,1.0,218068.96141276282,1,0,0,1,0,0,0,0,0,1.0,0.0,0.0,7,17.419132468490748,-8.732321770571644,632883.0,643136.0,658681.0,632701.0,632464.0,0.27950354672996924,0.3652089039396878,1.0
ZEKARA,"Semitic: Arab, Bedouin",NO,YAHI,,39.628274278044984,0,36.17086484878199,ZEKARA,0.0,0.0,0.0,0.0,0.0,0.0,0.0,0.0,0.0,0.0,0.0,0,Morocco,0.0,3538.637921671687,2,0,0,1,0,0,0,0,1,0.0,0.0,0.0,4,34.238479419965806,-2.054692268372265,124866.0,124306.0,122809.0,113697.0,73995.0,0.09981910831140543,0.15692859038632828,2.0
ZARAMO,Bantu,NO,ZARAMO,,37.66741044994883,1,37.66741044994883,ZARAMO,0.0,0.0,0.0,0.0,23688.0,11844.0,25432.0,39778.0,0.0,100742.0,100742.0,1,Tanzania,0.0,23975.276195055485,2,0,1,0,1,0,0,0,0,0.0,0.0,0.0,7,-7.246785772909029,38.88432187135374,5423457.0,5577247.0,5743603.0,6013614.0,6274973.0,0.7013732331017449,0.8802171252532073,1.0
ZAGHAWA,Saharan,NO,ZAGHAWA,,43.87136533650841,1,43.87136533650841,ZAGHAWA,0.0,0.0,0.0,0.0,0.0,0.0,0.0,0.0,0.0,0.0,0.0,0,Sudan,0.0,79058.72129856888,2,0,1,1,0,0,0,0,0,0.0,0.0,0.0,9,15.657123544020184,24.70568062319044,317521.0,350508.0,368295.0,387269.0,439834.0,0.3206075344183078,0.420276437298114,1.0
YUNGUR,West Atlantic,YES,NZANYI,,35.60453063770028,0,16.485628837515854,YUNGUR,0.0,0.0,0.0,0.0,0.0,0.0,0.0,0.0,0.0,0.0,0.0,0,Nigeria,1.0,2218.891492719199,1,0,1,0,0,0,0,0,0,0.0,0.0,0.0,5,9.909568280592028,12.535214831302907,164242.0,182537.0,176828.0,181645.0,193835.0,0.5083241011767708,0.6588983648048804,2.0
YORUBA,Kru,NO,YORUBA,,90.5874836690513,1,90.5874836690513,YORUBA,1029.0,53224.0,413202.0,198511.0,0.0,0.0,0.0,0.0,665966.0,0.0,665966.0,1,Nigeria,1.0,47652.10467225865,1,0,1,0,0,0,0,0,0,0.0,0.0,0.0,8,8.316554489194596,4.114710491654464,11901582.0,12280587.0,11853957.0,12147083.0,12963400.0,0.6287026434455333,0.7847013252733986,2.0
YOMBE,Bantu,NO,YOMBE,,68.3797171619463,1,68.3797171619463,YOMBE,0.0,0.0,0.0,8531.0,0.0,0.0,0.0,0.0,8531.0,0.0,8531.0,1,Dem Rep of the Congo,0.0,19234.08605016973,3,1,0,1,0,0,0,1,0,0.0,0.0,1.0,4,-4.793052638978949,12.960939581125247,1683179.0,1725011.0,1769880.0,1816947.0,1860411.0,0.6157095751643936,0.8250452151507771,2.0
YESKWA,Bantoid,NO,GBAGYI,,28.227314000147008,0,24.899206656958544,YESKWA,0.0,0.0,0.0,90.0,0.0,0.0,0.0,0.0,90.0,0.0,90.0,1,Nigeria,1.0,2839.80856123939,1,0,1,0,0,0,0,0,0,0.0,0.0,0.0,4,9.2180335326843,8.000890118730496,311972.0,277971.0,267573.0,273876.0,292286.0,0.5999999129881942,0.7697650217181468,1.0
YERGUM,Bantoid,NO,JARAWA,AFUSARE,32.10104513321909,0,1.222095666820031,YERGUM,0.0,0.0,0.0,0.0,0.0,0.0,0.0,0.0,0.0,0.0,0.0,0,Nigeria,1.0,1849.969349516961,1,0,1,0,0,0,0,0,0,0.0,0.0,0.0,3,9.240933154692533,9.96792466301983,241893.0,228095.0,222381.0,228651.0,244017.0,0.5574127752130682,0.6942430530894886,1.0
YEKE,Bantu,NO,LEMBWE,,37.13138663664372,0,10.232404887638632,YEKE,0.0,0.0,0.0,0.0,0.0,0.0,0.0,0.0,0.0,0.0,0.0,0,Dem Rep of the Congo,0.0,11396.437365683616,1,1,0,0,0,0,0,0,0,0.0,0.0,0.0,5,-10.50357504940998,27.448741004863063,72485.0,69548.0,70516.0,72751.0,74425.0,0.31847567530510285,0.48717160826543027,1.0
YAO,Bantu,NO,YAO,,74.02806179376435,1,74.02806179376435,YAO,0.0,0.0,0.0,11378.0,40258.0,20129.0,43222.0,67603.0,11378.0,171212.0,182590.0,1,Mozambique,0.0,100088.08052617911,3,0,1,0,1,0,0,1,0,1.0,0.0,0.0,8,-12.543280091247363,36.41355274459597,3371037.0,3502996.0,3616112.0,3580559.0,3958536.0,0.5219643659415758,0.7179409049876581,2.0
YANZI,Bantu,NO,YANZI,,87.50862755927157,1,87.50862755927157,YANZI,0.0,0.0,0.0,0.0,0.0,0.0,0.0,0.0,0.0,0.0,0.0,0,Dem Rep of the Congo,0.0,15042.556811989749,1,1,0,0,0,0,0,0,0,0.0,1.0,0.0,5,-3.980352831046996,18.10104646988514,665275.0,639580.0,643425.0,658917.0,674580.0,0.6690648780254507,0.872207203955759,1.0
YANGERE,Adamawa-Ubangian,NO,ANGERE,,77.60100255881555,1,77.60100255881555,YANGERE,0.0,0.0,0.0,0.0,0.0,0.0,0.0,0.0,0.0,0.0,0.0,0,Central African Rep,0.0,10489.440324446812,1,0,0,0,1,0,0,0,0,0.0,0.0,0.0,4,4.121738993730727,16.273949605487562,79400.0,87413.0,92151.0,96925.0,93235.0,0.590069880413786,0.8029171379371696,2.0
YALUNKA,Northern Mande,YES,DYALONKE,,56.124866246117534,0,0.0,YALUNKA,0.0,0.0,0.0,114.0,0.0,0.0,0.0,0.0,114.0,0.0,114.0,1,Guinea,1.0,7756.395835699058,2,0,1,1,0,0,0,0,0,0.0,0.0,0.0,5,10.086889040729528,-11.225840018508206,191968.0,225623.0,236725.0,272360.0,268148.0,0.5088007261129207,0.6674503554220955,2.0
YAKOMA,Adamawa-Ubangian,NO,BANDA,,63.752422352716785,0,25.287839767165128,YAKOMA,0.0,0.0,1712.0,17.0,0.0,0.0,0.0,0.0,1729.0,0.0,1729.0,1,Central African Rep,0.0,7695.731653055748,2,1,0,1,0,0,0,0,0,0.0,0.0,0.0,4,4.303598352436662,21.777951412406484,130799.0,139773.0,142977.0,135566.0,148336.0,0.6063173468999224,0.8135030101662882,2.0
YAKO,Bantu,NO,AGOI,,25.208236380640503,0,0.0,YAKO,0.0,0.0,0.0,126.0,0.0,0.0,0.0,0.0,126.0,0.0,126.0,1,Nigeria,1.0,2662.905625243952,1,0,1,0,0,0,0,0,0,0.0,0.0,0.0,4,5.722876462056712,8.282260327094066,380863.0,397379.0,386081.0,395425.0,422032.0,0.7134736462242495,0.8728997356325854,2.0
YAKA,Kru,NO,YAKA,,71.26028872915784,1,71.26028872915784,YAKA,0.0,0.0,0.0,3527.0,0.0,0.0,0.0,0.0,3527.0,0.0,3527.0,1,Dem Rep of the Congo,0.0,55289.88284015765,2,1,0,0,0,0,0,1,0,0.0,1.0,0.0,9,-6.256239332664134,17.152344174159232,1532491.0,1625483.0,1671194.0,1713406.0,1754638.0,0.5187518125057616,0.7266686096088253,5.0
YAHI,"Semitic: Arab, Bedouin",NO,YAHI,,63.72834194061727,1,63.72834194061727,YAHI,0.0,0.0,0.0,0.0,0.0,0.0,0.0,0.0,0.0,0.0,0.0,0,Morocco,0.0,7244.660165164537,2,0,0,1,0,0,0,0,1,0.0,0.0,0.0,6,34.16707662636136,-3.14614663103597,321463.0,324126.0,325180.0,330201.0,341827.0,0.14183730675429895,0.21325011405668234,2.0
XOSA,Bantu,NO,XHOSA,,86.39875923349706,1,86.39875923349706,XOSA,0.0,631.0,0.0,0.0,0.0,0.0,0.0,0.0,631.0,0.0,631.0,1,South Africa,0.0,14858.46498941918,1,0,1,0,0,0,0,0,0,0.0,0.0,0.0,2,-32.739310782177846,27.588076062456985,1189855.0,1322662.0,1301800.0,1315875.0,1332335.0,0.07669418977397177,0.17290708087430032,2.0
XAM,Bantu,NO,XHOSA,,12.531179816899732,0,0.0,XAM,0.0,0.0,0.0,0.0,0.0,0.0,0.0,0.0,0.0,0.0,0.0,0,South Africa,0.0,286327.12539821875,1,0,1,0,0,0,0,0,0,1.0,6.0,0.0,6,-30.748928050396618,22.63474077303269,1059989.0,1177717.0,1027877.0,1037817.0,1040441.0,0.12340617736430397,0.19012894163275393,1.0
WUTE,Bantoid,NO,VUTE,,80.83467360086782,0,0.0,WUTE,0.0,0.0,0.0,282.0,0.0,0.0,0.0,0.0,282.0,0.0,282.0,1,Cameroon,0.0,14707.845951082521,1,0,0,0,1,0,0,0,0,0.0,0.0,0.0,5,5.413401642627341,12.392717133235072,80592.0,79976.0,84948.0,62686.0,61500.0,0.5990812012142238,0.8166252778078924,2.0
WURKUM,Bantoid,NO,JARAWA,AFUSARE,14.46076209242109,0,0.0,WURKUM,0.0,0.0,0.0,0.0,0.0,0.0,0.0,0.0,0.0,0.0,0.0,0,Nigeria,1.0,2799.757528889047,1,0,1,0,0,0,0,0,0,0.0,0.0,0.0,5,9.392282966317262,11.296703719143723,190725.0,199941.0,194381.0,199853.0,213274.0,0.5126059140554596,0.6378088389906879,1.0
WUM,Bantoid,NO,BABANKI,,65.20745226598144,0,0.0,WUM,0.0,0.0,0.0,0.0,0.0,0.0,0.0,0.0,0.0,0.0,0.0,0,Cameroon,0.0,1045.7404391521484,2,0,1,0,1,0,0,0,0,0.0,0.0,0.0,4,6.555110684800831,9.85721242901877,24856.0,23992.0,19623.0,17945.0,18099.0,0.5492455618722099,0.7526327851530793,7.0
WOLOF,Fufulde,NO,WOLOF,,80.0370936407848,1,80.0370936407848,WOLOF,3812.0,5225.0,76292.0,5518.0,0.0,0.0,0.0,0.0,90847.0,0.0,90847.0,1,Senegal,1.0,26710.84663813296,1,0,0,1,0,0,0,0,0,1.0,0.0,1.0,3,15.214959130511971,-16.22257994335643,7334915.0,7550526.0,7728455.0,7906303.0,8017637.0,0.5150241276639792,0.6520987625386707,1.0
WOBE,Kwa,NO,"KRAN, NGERE",,99.18158438879989,0,0.0,WOBE,0.0,0.0,0.0,0.0,0.0,0.0,0.0,0.0,0.0,0.0,0.0,0,Cote d'Ivoire,1.0,2323.4201191917277,1,0,0,1,0,0,0,0,0,0.0,0.0,0.0,4,7.340965543881457,-7.17195464859766,203670.0,207581.0,212768.0,217725.0,236690.0,0.637698786226514,0.8250590355367566,2.0
WIDEKUM,Bantoid,NO,BABANKI,,55.38716054892877,0,0.0,WIDEKUM,0.0,0.0,0.0,0.0,0.0,0.0,0.0,0.0,0.0,0.0,0.0,0,Cameroon,0.0,3705.059008965176,2,0,1,0,1,0,0,0,0,0.0,0.0,0.0,8,6.025734130963502,9.855160216404768,229341.0,234052.0,231204.0,249598.0,259387.0,0.4189397867988138,0.6111194386201746,6.0
WARJAWA,Cushitic,NO,SHIRAWA,,78.33376509611035,0,0.0,WARJAWA,0.0,0.0,0.0,0.0,0.0,0.0,0.0,0.0,0.0,0.0,0.0,0,Nigeria,1.0,6594.407656643585,1,0,1,0,0,0,0,0,0,0.0,0.0,0.0,4,11.336329855373657,9.727942645588872,1468163.0,1544192.0,1492580.0,1530161.0,1633000.0,0.45338708255522886,0.5760165438254927,1.0
WARAIN,Berber,NO,AIT WARAIN,,57.5930196381938,1,57.5930196381938,WARAIN,0.0,0.0,0.0,0.0,0.0,0.0,0.0,0.0,0.0,0.0,0.0,0,Morocco,0.0,9865.994226400408,1,0,0,1,0,0,0,0,0,0.0,0.0,0.0,6,33.56626680272183,-4.19075432980782,243076.0,242246.0,242378.0,260607.0,244567.0,0.08676413870189693,0.13253624865184527,6.0
WARA,Voltaic,NO,TURKA,,47.04212839875385,0,0.0,WARA,0.0,0.0,0.0,30.0,0.0,0.0,0.0,0.0,30.0,0.0,30.0,1,Burkina Faso,1.0,2056.1335985002856,1,0,0,1,0,0,0,0,0,0.0,0.0,0.0,4,10.647434405632426,-5.008228724414908,112010.0,115000.0,118326.0,120683.0,100458.0,0.564262827172412,0.6998666616586539,1.0
WANGA,Bantu,NO,LUYIA,,51.11505383324898,0,0.0,WANGA,0.0,0.0,113.0,212.0,123.0,61.0,132.0,206.0,325.0,522.0,847.0,1,Kenya,0.0,6574.012092843635,1,0,1,0,0,0,0,0,0,0.0,0.0,0.0,5,0.622140705395707,34.540952702748015,3812257.0,3883440.0,3968038.0,4016997.0,4099546.0,0.2408973641313174,0.3980544621687021,2.0
WALLO,Cushitic,NO,WOLLO,,68.14071638714866,0,0.0,WALLO,0.0,0.0,0.0,0.0,2.0,1.0,3.0,4.0,0.0,10.0,10.0,1,Ethiopia,0.0,27274.268740504012,1,0,0,0,0,1,0,0,0,0.0,0.0,0.0,5,11.750361003714161,39.79132952899399,3744567.0,3850603.0,3529787.0,3639883.0,3703522.0,0.27980812060332383,0.38932012674523087,6.0
WALLAGA,Cushitic,NO,WALLAGA,,76.76537469396897,1,76.76537469396897,WALLAGA,0.0,0.0,0.0,0.0,3.0,1.0,3.0,5.0,0.0,12.0,12.0,1,Ethiopia,0.0,30646.910567230727,1,0,0,0,0,1,0,0,0,4.0,0.0,0.0,7,8.963389859766824,35.62870412809423,2908451.0,2989002.0,3272961.0,3359083.0,3575992.0,0.21977945985969108,0.37937765684423747,5.0
WAKURA,Saharan,NO,KANURI,,55.12520458597635,0,0.0,WAKURA,0.0,0.0,0.0,0.0,0.0,0.0,0.0,0.0,0.0,0.0,0.0,0,Nigeria,1.0,1685.8203661419686,2,0,1,0,1,0,0,0,0,0.0,0.0,0.0,5,11.191251904044291,13.820368349346742,370066.0,433347.0,422082.0,431294.0,455872.0,0.4700385671773993,0.6030424583734771,1.0
WABA,Voltaic,NO,WALA,,52.834754648184855,0,0.0,WABA,0.0,0.0,0.0,0.0,0.0,0.0,0.0,0.0,0.0,0.0,0.0,0,Ghana,1.0,5022.092067996942,1,0,1,0,0,0,0,0,0,0.0,0.0,0.0,4,9.982901521823718,-2.217325618293753,241235.0,254637.0,265485.0,275816.0,247610.0,0.5838176587904375,0.711807174247821,1.0
VILI,Kru,NO,VILI,,41.715606533506204,1,41.715606533506204,VILI,0.0,0.0,218.0,79170.0,0.0,0.0,0.0,0.0,79388.0,0.0,79388.0,1,Rep of the Congo,0.0,22591.656967629733,3,1,0,1,0,0,0,1,0,1.0,0.0,1.0,3,-4.66063888450425,12.058321549068985,2115646.0,2164047.0,2243128.0,2328158.0,2379686.0,0.6724504557983528,0.8666660093982466,2.0
VERE,West Atlantic,YES,BATA,,41.11161041257488,0,11.347040941245266,VERE,0.0,0.0,0.0,0.0,0.0,0.0,0.0,0.0,0.0,0.0,0.0,0,Nigeria,1.0,5268.476703268914,2,0,1,0,1,0,0,0,0,0.0,0.0,0.0,7,9.127364682678754,12.570126390748927,807436.0,792321.0,764385.0,782498.0,835173.0,0.5049520084817855,0.6302638204313451,1.0
VENDA,Bantu,NO,TSONGA,THONGA,37.03520648893029,0,29.89017060301327,VENDA,0.0,0.0,0.0,0.0,0.0,0.0,0.0,0.0,0.0,0.0,0.0,0,South Africa,0.0,26806.301901072704,1,0,1,0,0,0,0,0,0,1.0,1.0,0.0,5,-22.554541186344718,30.205309583300764,1279426.0,1439874.0,1449755.0,1492303.0,1510845.0,0.3399965944921817,0.49264502507744506,1.0
VAI,Southern Mande,YES,VAI,,45.99340628707837,1,45.99340628707837,VAI,0.0,0.0,586.0,514.0,0.0,0.0,0.0,0.0,1100.0,0.0,1100.0,1,Liberia,1.0,5611.293199603019,2,0,1,0,0,1,0,0,0,0.0,2.0,0.0,4,6.902233212510556,-11.15831834422483,266877.0,268190.0,256830.0,281760.0,289027.0,0.7057228509633819,0.8815054489791028,1.0
VAGALA,Voltaic,NO,VAGALA,,63.58052435072775,1,63.58052435072775,VAGALA,0.0,0.0,0.0,0.0,0.0,0.0,0.0,0.0,0.0,0.0,0.0,0,Ghana,1.0,1422.5281049592875,1,0,1,0,0,0,0,0,0,1.0,0.0,0.0,3,9.106234920905306,-2.299259874537647,24584.0,26699.0,28850.0,30750.0,26608.0,0.6283835479718174,0.7859086417357599,1.0
UREGU,Berber,NO,AIT WARAIN,,52.06298300074679,0,31.91341517021081,UREGU,0.0,0.0,0.0,0.0,0.0,0.0,0.0,0.0,0.0,0.0,0.0,0,Morocco,0.0,3988.1841809863754,1,0,0,1,0,0,0,0,0,0.0,0.0,0.0,4,33.36160868579878,-3.562193534035967,57167.0,60237.0,61518.0,67036.0,67346.0,0.13212474067191432,0.19891432042346502,1.0
UNINHABITED (West Saharan Desert),"Semitic: Arab, Bedouin",NO,TAJAKANT,,7.221403682506374,0,0.0,,,,,,,,,,,,,0,Algeria,0.0,707802.5843753119,2,0,0,1,0,0,0,0,1,0.0,1.0,1.0,9,24.92421805184622,-5.373884993745577,23508.0,19503.0,17152.0,14103.0,12661.0,0.28113933014382936,0.359409210474356,1.0
UNINHABITED (Seychelles),,,,,0.0,0,0.0,,,,,,,,,,,,,0,,0.0,479.2941092474552,1,0,0,0,0,1,0,0,0,0.0,0.0,0.0,0,-6.722580899434955,51.92353343021921,69781.0,266.0,78653.0,79207.0,77390.0,0.7714661661783854,0.9705804443359375,6.0
UNINHABITED (Sao Tome and Principe),,,,,0.0,0,0.0,,,,,,,,,,,,,0,Sao Tome & Principe,0.0,1008.564387885164,1,0,0,0,0,1,0,0,0,0.0,0.0,0.0,0,0.445609800774161,6.726771493563801,179540.0,182467.0,185829.0,189099.0,192208.0,0.5035253367856765,0.7224043440879453,6.0
UNINHABITED (Reunion),,,,,0.0,0,0.0,,,,,,,,,,,,,0,,0.0,2541.0428156285084,1,0,0,0,0,1,0,0,0,0.0,0.0,0.0,0,-21.12082207281703,55.54007464486473,683369.0,,695436.0,698491.0,708008.0,0.22006444253687735,0.35978985492123666,6.0
UNINHABITED (Mauritius),,,,,0.0,0,0.0,,,,,,,,,,,,,0,,0.0,2017.515019394485,1,0,0,0,0,1,0,0,0,0.0,0.0,0.0,0,-20.13095438943525,57.87870936874959,1252349.0,0.0,0.0,0.0,0.0,0.4459045361445032,0.6677802862972616,2.0
UNINHABITED (Madeira),,,,,0.0,0,0.0,,,,,,,,,,,,,0,Portugal (Madeira Is),0.0,822.1634745685942,1,0,0,0,0,1,0,0,0,0.0,0.0,0.0,0,32.336368403873564,-16.434345756227028,239825.0,240002.0,240186.0,240471.0,224559.0,0.03304906712612802,0.08949773409160175,1.0
UNINHABITED (Libyan Desert),"Semitic: Arab, Bedouin",NO,DAKHLA,,4.349814787757589,0,0.0,,,,,,,,,,,,,0,Libya,0.0,554489.7003162268,2,0,1,0,0,0,1,0,0,0.0,0.0,1.0,13,25.86784209199596,23.865927823507672,8553.0,9487.0,8502.0,9739.0,9814.0,0.1867890145449693,0.2546116320139445,1.0
UNINHABITED (Cape Verde),,,,,0.0,0,0.0,,,,,,,,,,,,,0,Cabo Verde,1.0,4057.6499847359964,1,0,0,0,0,1,0,0,0,0.0,0.0,0.0,0,15.941527503031596,-23.98055902578766,480906.0,487580.0,489276.0,495964.0,346822.0,0.43877139438933427,0.6439527353263903,6.0
UNGA,Northern Mande,NO,BISA,,59.01369826771572,0,39.34646382493002,UNGA,0.0,0.0,0.0,0.0,0.0,0.0,0.0,0.0,0.0,0.0,0.0,0,Zambia,0.0,7572.354488451144,1,0,1,0,0,0,0,0,0,0.0,0.0,0.0,3,-11.580638135695002,30.197461470327315,44384.0,44749.0,46035.0,49667.0,40970.0,0.28448200057038164,0.46916865796114493,1.0
UDALAN,Fufulde,NO,FULANKRIABE,,64.8978170575683,0,0.0,UDALAN,0.0,0.0,0.0,0.0,0.0,0.0,0.0,0.0,0.0,0.0,0.0,0,Mali,1.0,64030.31282071318,1,0,0,1,0,0,0,0,0,0.0,0.0,0.0,4,15.63859916840133,-0.863684404977666,399478.0,408311.0,422214.0,429465.0,433161.0,0.299776907767771,0.38136252613380506,1.0
TUSYAN,Northern Mande,YES,BOBO,,31.285302386033422,0,21.850404429645458,TUSYAN,0.0,0.0,0.0,0.0,0.0,0.0,0.0,0.0,0.0,0.0,0.0,0,Burkina Faso,1.0,6539.779021485855,1,0,0,1,0,0,0,0,0,0.0,0.0,0.0,8,10.97072313044067,-4.338944741415422,357199.0,383355.0,395861.0,415132.0,408852.0,0.543539027421424,0.6736993991541051,1.0
TURU,Bantu,NO,NYATURU,ARIMI,81.57814944432677,0,0.0,TURU,0.0,0.0,0.0,0.0,798.0,399.0,857.0,1340.0,0.0,3394.0,3394.0,1,Tanzania,0.0,13459.59961311277,1,0,0,0,1,0,0,0,0,0.0,0.0,0.0,6,-5.147103581845967,34.67637824937099,756583.0,776514.0,796830.0,825031.0,857401.0,0.29462407929927,0.4938491561848177,1.0
TURKANA,Nilotic,NO,TURKANA,,78.02572993597055,1,78.02572993597055,TURKANA,0.0,0.0,0.0,0.0,0.0,0.0,0.0,0.0,0.0,0.0,0.0,0,Kenya,0.0,49820.74668226067,1,0,1,0,0,0,0,0,0,0.0,0.0,0.0,7,3.404871109608478,35.397162864469216,836533.0,860568.0,879744.0,939581.0,968148.0,0.5757581535935118,0.7077180536286247,1.0
TUNISIANS,"Semitic: Arab, Bedouin",NO,TUNISIAN,,83.54331291473552,1,83.54331291473552,TUNISIANS,0.0,0.0,0.0,0.0,0.0,0.0,0.0,0.0,0.0,0.0,0.0,0,Tunisia,0.0,27765.891548876894,1,0,0,1,0,0,0,0,0,0.0,0.0,1.0,4,36.57992536780035,9.292338885011064,5328948.0,5377635.0,5375984.0,5504391.0,5561934.0,0.1760826736574201,0.2512976201419704,2.0
TUNGUR,Chadic,NO,TUNDJUR,TUNGUR,90.08679159465473,1,90.08679159465473,TUNGUR,0.0,0.0,0.0,0.0,0.0,0.0,0.0,0.0,0.0,0.0,0.0,0,Sudan,0.0,12317.673698437398,1,0,1,0,0,0,0,0,0,0.0,0.0,0.0,4,14.119311125690347,25.05124929089808,322241.0,353639.0,366823.0,415990.0,480714.0,0.3304921240458176,0.4358714194463636,1.0
TUMTUM,"Semitic: Arab, Bedouin",NO,BAGGARA,,70.31929337629929,0,12.498707696776266,TUMTUM,0.0,0.0,0.0,0.0,0.0,0.0,0.0,0.0,0.0,0.0,0.0,0,Sudan,0.0,9938.975440219265,1,0,1,0,0,0,0,0,0,0.0,0.0,0.0,8,10.954382109638205,29.811095854204837,256861.0,268202.0,274898.0,272118.0,314169.0,0.46082474354404307,0.5712765202524293,1.0
TUMBUKA,Bantu,NO,TUMBUKA,,20.73246591428112,1,20.73246591428112,TUMBUKA,0.0,0.0,0.0,788.0,2700.0,1350.0,2899.0,4534.0,788.0,11483.0,12271.0,1,Malawi,0.0,24362.59183160944,1,0,1,0,0,0,0,0,0,0.0,0.0,0.0,6,-10.786591239563073,33.69683228898317,1464530.0,1508243.0,1558319.0,1378019.0,1708501.0,0.26949149305854914,0.43456125310376936,2.0
TULAMA,Cushitic,NO,TULAMA,,32.81349324476255,1,32.81349324476255,TULAMA,0.0,0.0,0.0,0.0,4.0,2.0,5.0,7.0,0.0,18.0,18.0,1,Ethiopia,0.0,48814.628657138855,1,0,0,0,0,1,0,0,0,0.0,0.0,0.0,7,9.591980092933083,39.335408274209016,11809640.0,12147753.0,11788728.0,12168759.0,17785841.0,0.15304281923847177,0.24156316966597896,6.0
TUKULOR,"Semitic: Arab, Bedouin",NO,TRARZA,,24.68021632806278,0,22.72111757996849,TUKULOR,0.0,0.0,0.0,0.0,0.0,0.0,0.0,0.0,0.0,0.0,0.0,0,Mauritania,1.0,35493.836507050146,1,0,0,1,0,0,0,0,0,0.0,0.0,0.0,7,16.080479043658045,-13.903996017123815,1205972.0,1339344.0,1478354.0,1517307.0,1540700.0,0.33929248410967733,0.42983322783339917,1.0
TUBURI,West Atlantic,YES,MASSA,MASSANA,69.91614673441734,0,14.743546248086774,TUBURI,0.0,0.0,0.0,0.0,0.0,0.0,0.0,0.0,0.0,0.0,0.0,0,Cameroon,0.0,4867.457183182179,2,0,0,1,1,0,0,0,0,0.0,0.0,0.0,4,10.310324785424973,15.094101455793865,600744.0,619262.0,648086.0,668218.0,731753.0,0.4471527954059367,0.5467593855318873,1.0
TUAT,Berber,NO,TUAT,,71.5908388260817,1,71.5908388260817,TUAT,0.0,0.0,0.0,0.0,0.0,0.0,0.0,0.0,0.0,0.0,0.0,0,Algeria,0.0,153120.6450026938,1,0,0,1,0,0,0,0,0,0.0,2.0,1.0,6,28.255404054932654,1.145010371130105,465748.0,475917.0,483361.0,486805.0,495013.0,0.20048530714352636,0.2627776975608012,1.0
TSIMIHETY,Malagasy,NO,TSIMIHETY,,68.15419199710556,1,68.15419199710556,TSIMIHETY,0.0,499.0,430.0,3067.0,0.0,0.0,1764.0,1701.0,3996.0,3465.0,7461.0,1,Madagascar,0.0,23009.848019031477,1,0,0,1,0,0,0,0,0,0.0,0.0,0.0,4,-15.466764485692185,48.84526070753692,614185.0,629819.0,641644.0,641074.0,649631.0,0.3227916171088234,0.48883573086899257,6.0
TRIPOLITANIANS,"Semitic: Arab, Bedouin",NO,TRIPOLITANIAN,,75.94496138652903,1,75.94496138652903,TRIPOLITANIANS,0.0,0.0,0.0,0.0,0.0,0.0,0.0,0.0,0.0,0.0,0.0,0,Libya,0.0,46746.11156640841,2,0,0,1,0,0,1,0,0,0.0,0.0,1.0,4,32.40603597716108,12.653688757948155,3440489.0,3560226.0,3651296.0,3702549.0,3702330.0,0.26336698349104204,0.35885682088547166,1.0
TRIBU,Voltaic,NO,KABRE,,71.584622608708,0,0.0,TRIBU,0.0,0.0,0.0,0.0,0.0,0.0,0.0,0.0,0.0,0.0,0.0,0,Togo,1.0,2970.4129369745174,2,0,1,0,1,0,0,0,0,0.0,0.0,0.0,7,8.017383659657504,0.813602699849722,158523.0,160105.0,163437.0,171275.0,175478.0,0.6221280032641268,0.7885453036931007,2.0
TRARZA,"Semitic: Arab, Bedouin",NO,TRARZA,,92.9043919918265,1,92.9043919918265,TRARZA,0.0,0.0,0.0,97.0,0.0,0.0,0.0,0.0,97.0,0.0,97.0,1,Mauritania,1.0,64087.77157651413,1,0,0,1,0,0,0,0,0,0.0,0.0,0.0,6,17.925767887411034,-14.515219013157687,1146776.0,1174456.0,1198345.0,1225052.0,1253982.0,0.3317274874290749,0.42995466197648974,1.0
TOTELA,Bantu,NO,TOTELA,,82.76677283398831,1,82.76677283398831,TOTELA,0.0,0.0,0.0,0.0,0.0,0.0,0.0,0.0,0.0,0.0,0.0,0,Zambia,0.0,18341.4607375704,1,0,1,0,0,0,0,0,0,0.0,0.0,0.0,5,-16.346886752956703,24.5295989859393,63161.0,55560.0,57114.0,47742.0,46062.0,0.32609517223352863,0.47124056852999063,1.0
TORO,Bantu,NO,TORO,,65.15295274931208,1,65.15295274931208,TORO,0.0,0.0,0.0,0.0,0.0,0.0,0.0,0.0,0.0,0.0,0.0,0,Uganda,0.0,13680.794437332454,2,1,1,0,0,0,0,0,0,0.0,0.0,0.0,6,0.69719414271908,30.604529725602273,2065283.0,2356064.0,2438791.0,2515002.0,2662569.0,0.3442482056656504,0.5557863923741401,2.0
TOPOTHA,Nilotic,NO,TOPOSA,,75.11447620810702,0,0.0,TOPOTHA,0.0,0.0,0.0,0.0,0.0,0.0,0.0,0.0,0.0,0.0,0.0,0,South Sudan,0.0,26937.94754868587,2,0,1,0,0,1,0,0,0,0.0,0.0,0.0,6,5.257205802758164,34.48713649023801,306012.0,312513.0,323931.0,327490.0,204954.0,0.6020905867866848,0.7396839477415634,1.0
TOPOKE,Bantu,NO,TOPOKE,ESO,53.40843099940433,1,53.40843099940433,TOPOKE,0.0,0.0,0.0,0.0,0.0,0.0,0.0,0.0,0.0,0.0,0.0,0,Dem Rep of the Congo,0.0,8904.30350790232,1,1,0,0,0,0,0,0,0,0.0,0.0,0.0,3,0.336626824965917,23.964099759591626,348666.0,353515.0,359787.0,350683.0,358976.0,0.653652358736572,0.8664283364605314,1.0
TONGA,Bantu,NO,ILA-TONGA,,53.96544362944271,1,53.96544362944271,TONGA,0.0,0.0,0.0,0.0,61.0,31.0,66.0,103.0,0.0,261.0,261.0,1,Zambia,0.0,71103.93979288371,1,0,1,0,0,0,0,0,0,1.0,0.0,0.0,9,-16.791098621993594,27.16359821022527,1689390.0,1689297.0,1716049.0,1756323.0,1972354.0,0.3513762298287206,0.49804255412614645,1.0
TOMA,Northern Mande,NO,KONYANKE,,33.942846863318415,0,29.141017530824538,TOMA,0.0,0.0,2796.0,495.0,0.0,0.0,0.0,0.0,3291.0,0.0,3291.0,1,Guinea,1.0,9906.809924920157,2,0,0,1,0,1,0,0,0,0.0,8.0,0.0,5,8.196487025621462,-9.371466444952263,375077.0,368534.0,391531.0,431376.0,415214.0,0.4880457668439716,0.6748855878968,2.0
TLOKWA,Bantu,NO,LOVEDU,,62.59527035565037,0,0.0,TLOKWA,0.0,0.0,0.0,0.0,0.0,0.0,0.0,0.0,0.0,0.0,0.0,0,South Africa,0.0,35024.54736907894,1,0,1,0,0,0,0,0,0,3.0,2.0,0.0,7,-23.04835649210956,29.13781479767045,1351624.0,1490508.0,1489557.0,1470397.0,1482323.0,0.24501106805986772,0.36866196700357723,1.0
TLHARU,Bantu,NO,TAWANA,,100.0,0,0.0,TLHARU,0.0,0.0,0.0,0.0,0.0,0.0,0.0,0.0,0.0,0.0,0.0,0,South Africa,0.0,29230.464247401127,1,0,1,0,0,0,0,0,0,0.0,0.0,0.0,5,-26.93982449764258,22.84963955125791,158457.0,175550.0,186594.0,186287.0,196513.0,0.21759321549388855,0.31234112040987255,1.0
TLHAPING,Bantu,NO,TAWANA,,100.0,0,0.0,TLHAPING,0.0,0.0,0.0,0.0,0.0,0.0,0.0,0.0,0.0,0.0,0.0,0,South Africa,0.0,25968.13959577338,1,0,1,0,0,0,0,0,0,0.0,5.0,0.0,4,-27.69454304514436,24.527408317616437,389704.0,431198.0,381967.0,381428.0,377222.0,0.1637028872649813,0.24982646370814585,1.0
TIV,Bantoid,NO,TIV,MUNSHI,64.77709825671036,1,64.77709825671036,TIV,0.0,0.0,0.0,361.0,0.0,0.0,0.0,0.0,361.0,0.0,361.0,1,Nigeria,1.0,22720.41397762327,2,0,1,0,1,0,0,0,0,0.0,0.0,0.0,12,7.330617690199276,9.155446082217699,3682526.0,3779215.0,3647554.0,3737552.0,3988803.0,0.63863455321154,0.7864412275136224,1.0
TIKAR,Bantoid,NO,TIKAR,,49.26215309041424,1,49.26215309041424,TIKAR,0.0,0.0,0.0,1035.0,0.0,0.0,0.0,0.0,1035.0,0.0,1035.0,1,Cameroon,0.0,9347.09594789616,1,0,0,0,1,0,0,0,0,0.0,0.0,0.0,5,5.908454970133795,11.72490020905142,84855.0,84093.0,86228.0,82813.0,85110.0,0.564188496894604,0.7836067483407583,2.0
TIGRINYA,"Semitic: Arab, Bedouin",NO,TIGRAY,,54.4957574184445,0,3.342190736902342,TIGRINYA,0.0,0.0,0.0,0.0,0.0,0.0,0.0,0.0,0.0,0.0,0.0,0,Eritrea,0.0,64389.76035721827,3,0,1,0,0,1,1,0,0,7.0,0.0,0.0,10,14.524782688841926,38.314912694854506,8250927.0,8432841.0,7943559.0,8095261.0,8636631.0,0.27777909220162544,0.3976683360016975,6.0
TIGRE,"Semitic: Arab, Bedouin",NO,TIGRINYA,,90.33450123580505,0,0.0,TIGRE,0.0,0.0,0.0,0.0,0.0,0.0,0.0,0.0,0.0,0.0,0.0,0,Eritrea,0.0,23176.104433039043,1,0,0,0,0,0,1,0,0,0.0,0.0,0.0,5,16.302106885016943,38.536683287097055,1117475.0,1120909.0,985189.0,986278.0,1050225.0,0.3865516921049323,0.5220595354766139,6.0
TIGON,Bantoid,NO,KAMKAM,,29.113941284712013,0,0.0,TIGON,0.0,0.0,0.0,0.0,0.0,0.0,0.0,0.0,0.0,0.0,0.0,0,Nigeria,1.0,5689.584767728197,2,0,1,0,1,0,0,0,0,0.0,0.0,0.0,7,6.879668425116003,11.00807808431144,328396.0,359978.0,350456.0,361389.0,380823.0,0.4063212938517053,0.5959373606776639,6.0
TIENGA,Songhai,NO,ZARMA,DJERMA,76.10727100386751,0,5.581957583813554,TIENGA,0.0,0.0,0.0,0.0,0.0,0.0,0.0,0.0,0.0,0.0,0.0,0,Nigeria,1.0,3958.3303554253694,2,0,1,1,0,0,0,0,0,0.0,0.0,0.0,4,11.830553977522408,3.738285895291588,350758.0,368647.0,357993.0,370035.0,399003.0,0.44136157438319756,0.5405299261555955,1.0
THONGA,Bantu,NO,TSONGA,THONGA,88.32111762011343,1,88.32111762011343,THONGA,0.0,0.0,0.0,0.0,0.0,0.0,0.0,0.0,0.0,0.0,0.0,0,Mozambique,0.0,57078.768825813495,2,0,1,0,0,0,0,1,0,3.0,0.0,0.0,7,-24.14810959984009,32.02171340646027,1508868.0,1536893.0,1554805.0,1477590.0,1511511.0,0.40707935170312887,0.5615441197875284,1.0
TETELA,Bantu,NO,TETELA,,43.58269700284133,1,43.58269700284133,TETELA,0.0,0.0,0.0,1058.0,0.0,0.0,0.0,0.0,1058.0,0.0,1058.0,1,Dem Rep of the Congo,0.0,82383.95325916907,1,1,0,0,0,0,0,0,0,3.0,1.0,0.0,6,-3.682727469520129,24.455185000317922,1642756.0,1680238.0,1719620.0,1760291.0,1801731.0,0.649553756302347,0.8535080422865484,2.0
TESO,Nilotic,NO,TESO,,54.61996556707091,1,54.61996556707091,TESO,0.0,0.0,0.0,0.0,0.0,0.0,0.0,0.0,0.0,0.0,0.0,0,Uganda,0.0,9773.635003010157,1,0,1,0,0,0,0,0,0,0.0,0.0,0.0,5,1.971395162932457,33.93908604780851,865654.0,961942.0,994321.0,1027755.0,1045016.0,0.5091224469110388,0.7169913172451075,1.0
TERA,Saharan,NO,KANURI,,64.62848215444063,0,0.432080099322635,TERA,0.0,0.0,0.0,0.0,0.0,0.0,0.0,0.0,0.0,0.0,0.0,0,Nigeria,1.0,8097.548378955661,1,0,1,0,0,0,0,0,0,0.0,0.0,0.0,9,10.537082679723353,11.782665470321438,919574.0,1077912.0,1042865.0,1069642.0,1142156.0,0.4889148439934559,0.6370100855666355,1.0
TENDA,West Atlantic,NO,TENDA,,98.4576067831672,1,98.4576067831672,TENDA,0.0,0.0,0.0,95.0,0.0,0.0,0.0,0.0,95.0,0.0,95.0,1,Guinea,1.0,4429.030965157013,1,0,0,1,0,0,0,0,0,0.0,0.0,0.0,2,12.509527759618786,-12.996040044321266,101579.0,111843.0,116577.0,117182.0,114625.0,0.47141604138696536,0.5871881514096947,2.0
TEMNE,West Atlantic,NO,TEMNE,,63.87133360153169,1,63.87133360153169,TEMNE,2363.0,2072.0,15110.0,21250.0,0.0,0.0,0.0,0.0,40795.0,0.0,40795.0,1,Sierra Leone,1.0,15564.165057081156,1,0,1,0,0,0,0,0,0,0.0,1.0,0.0,7,8.668789640337328,-12.252856579735173,2103271.0,2283589.0,2340121.0,2377586.0,2433542.0,0.6700201574557113,0.8311792918228997,1.0
TEMBU,Bantu,NO,XHOSA,,99.98365100506075,0,0.0,TEMBU,0.0,0.0,0.0,235.0,0.0,0.0,0.0,0.0,235.0,0.0,235.0,1,South Africa,0.0,21087.20013337079,1,0,1,0,0,0,0,0,0,0.0,0.0,0.0,6,-31.821268489958783,27.83833659641023,1117644.0,1239251.0,1088979.0,1090505.0,1094529.0,0.04905487221948564,0.11838242949062791,2.0
TEMAIN,"Semitic: Arab, Bedouin",NO,BAGGARA,,67.24219094732962,0,0.0,TEMAIN,0.0,0.0,0.0,0.0,0.0,0.0,0.0,0.0,0.0,0.0,0.0,0,Sudan,0.0,1920.4787980662404,1,0,1,0,0,0,0,0,0,0.0,0.0,0.0,5,11.696094617431882,29.835073941389556,38458.0,27152.0,24254.0,22221.0,25588.0,0.5031206658900853,0.645913948489424,1.0
TEM,Voltaic,NO,TEM,KOTOKOLI,62.76470797072589,1,62.76470797072589,TEM,1475.0,16516.0,31025.0,116.0,0.0,0.0,0.0,0.0,49132.0,0.0,49132.0,1,Togo,1.0,7894.526448389651,2,0,0,1,1,0,0,0,0,0.0,0.0,0.0,7,8.94977482391504,1.306829885077808,545375.0,584415.0,610795.0,627222.0,643828.0,0.5838844481610951,0.7361633765100986,1.0
TEKNA,Berber,NO,YAGOUTE,,83.04197453186609,0,0.0,TEKNA,0.0,0.0,0.0,0.0,0.0,0.0,0.0,0.0,0.0,0.0,0.0,0,Morocco,0.0,69941.28943398115,2,0,0,1,0,0,0,0,1,0.0,0.0,0.0,4,27.817269886744214,-10.908466801964513,476845.0,482169.0,485517.0,478968.0,483548.0,0.23863763985852643,0.36754079376669346,1.0
TEKE,Bantu,NO,TIO,,35.4711817746661,0,0.0,TEKE,2620.0,20644.0,748.0,41034.0,0.0,0.0,0.0,0.0,65046.0,0.0,65046.0,1,Rep of the Congo,0.0,128566.85882195829,2,1,0,1,0,0,0,0,0,2.0,1.0,0.0,11,-2.883029252394828,15.464024953289895,11671964.0,11937739.0,12236318.0,12501879.0,12807361.0,0.6224501833548036,0.8354861164141146,2.0
TEITA,Bantu,NO,TEITA,DABIDA,58.653580956376814,1,58.653580956376814,TEITA,0.0,0.0,0.0,0.0,82.0,41.0,88.0,137.0,0.0,348.0,348.0,1,Kenya,0.0,17154.436352322038,1,0,1,0,0,0,0,0,0,0.0,0.0,0.0,9,-3.346674385417354,38.44873242669155,260414.0,268017.0,273420.0,279823.0,281810.0,0.5172041450688644,0.7218252590182478,1.0
TEDA,Saharan,NO,TEDA,,82.51842398272507,1,82.51842398272507,TEDA,0.0,0.0,0.0,0.0,0.0,0.0,0.0,0.0,0.0,0.0,0.0,0,Chad,0.0,604885.05899104,3,0,1,1,0,0,1,0,0,1.0,0.0,0.0,9,21.743770415954963,16.324978453501824,36729.0,36569.0,39470.0,45002.0,60259.0,0.19069832699609776,0.26313115103956514,1.0
TAZARAWA,Cushitic,NO,TAZARAWA,,66.56369458944043,1,66.56369458944043,TAZARAWA,0.0,0.0,0.0,0.0,0.0,0.0,0.0,0.0,0.0,0.0,0.0,0,Niger,1.0,31158.097605713003,1,0,0,1,0,0,0,0,0,0.0,0.0,0.0,4,13.927633955982532,7.943567772925292,2899929.0,2992756.0,3291190.0,3394288.0,3542198.0,0.36895051368322496,0.46657706123047393,1.0
TAWARA,Bantu,NO,BARWE,,48.83790531247922,0,0.0,TAWARA,0.0,0.0,0.0,0.0,0.0,0.0,0.0,0.0,0.0,0.0,0.0,0,Mozambique,0.0,53285.75597900854,2,0,1,0,0,0,0,1,0,0.0,0.0,0.0,6,-17.19120286690307,32.85725620339604,1257784.0,1321089.0,1358360.0,1258180.0,1271777.0,0.36719064676965213,0.5313655014308512,2.0
TAWANA,Bantu,NO,TAWANA,,59.06487088413981,1,59.06487088413981,TAWANA,0.0,0.0,0.0,0.0,0.0,0.0,0.0,0.0,0.0,0.0,0.0,0,Botswana,0.0,20284.378949318056,1,0,1,0,0,0,0,0,0,0.0,0.0,0.0,4,-19.993916313758714,22.779545115956335,84147.0,85004.0,94041.0,97961.0,102547.0,0.362800169282189,0.4879157649225997,1.0
TATOGA,Nilotic,NO,TATOG,"BARABAIG, TATONGA",83.27223571943051,1,83.27223571943051,TATOGA,0.0,0.0,0.0,0.0,123.0,61.0,132.0,206.0,0.0,522.0,522.0,1,Tanzania,0.0,2196.348294348252,1,0,0,0,1,0,0,0,0,0.0,0.0,0.0,5,-4.684702268788865,35.377665575038236,147567.0,151407.0,155298.0,159981.0,161335.0,0.17805890454309262,0.3562615697732381,2.0
TASUMSA,Berber,NO,TASUMSA,,57.475787862989016,1,57.475787862989016,TASUMSA,0.0,0.0,0.0,0.0,0.0,0.0,0.0,0.0,0.0,0.0,0.0,0,Mauritania,1.0,9965.276237454507,1,0,0,1,0,0,0,0,0,0.0,0.0,0.0,2,17.084095645640147,-15.726643709994379,68536.0,72554.0,78312.0,75104.0,76514.0,0.434949001193305,0.55292253874333,1.0
TANNEKWE,Bantu,NO,TAWANA,,43.0868633919041,0,0.0,TANNEKWE,0.0,0.0,0.0,0.0,0.0,0.0,0.0,0.0,0.0,0.0,0.0,0,Botswana,0.0,17301.606001084652,1,0,1,0,0,0,0,0,0,0.0,0.0,0.0,6,-19.294588410754915,21.97669909375992,22598.0,23052.0,25397.0,24477.0,25654.0,0.3631084595296452,0.4929681573150093,1.0
TANGALE,West Atlantic,NO,TERA,PIDLIMDI,49.068594317102374,0,6.445894915072779,TANGALE,0.0,0.0,0.0,0.0,0.0,0.0,0.0,0.0,0.0,0.0,0.0,0,Nigeria,1.0,3757.136564706224,1,0,1,0,0,0,0,0,0,0.0,0.0,0.0,5,9.903857453881574,11.478666196626955,716384.0,732298.0,710821.0,728434.0,777453.0,0.5137186590552943,0.6614483862561562,1.0
TANALA,Malagasy,NO,BETSIMISARAKA,,43.949599581956925,0,43.01049986250301,TANALA,0.0,819.0,706.0,5037.0,0.0,0.0,2897.0,2793.0,6562.0,5690.0,12252.0,1,Madagascar,0.0,37834.609550067464,1,0,0,1,0,0,0,0,0,1.0,0.0,0.0,6,-20.902943393668096,47.67976745635822,2059431.0,2119544.0,2166195.0,2242569.0,2300766.0,0.2582344798602304,0.4183502513342845,5.0
TAMA,Chari-Nile,NO,TAMA,,32.7077646232522,1,32.7077646232522,TAMA,0.0,0.0,0.0,0.0,0.0,0.0,0.0,0.0,0.0,0.0,0.0,0,Sudan,0.0,17968.374459765553,2,0,1,1,0,0,0,0,0,0.0,0.0,0.0,6,14.315484484748234,22.815200694653758,291525.0,275422.0,253624.0,247647.0,304850.0,0.3796907978582303,0.49791694298994277,1.0
TALODI,"Semitic: Arab, Bedouin",NO,BAGGARA,,66.21379051812016,0,0.0,TALODI,0.0,0.0,0.0,0.0,0.0,0.0,0.0,0.0,0.0,0.0,0.0,0,Sudan,0.0,3890.911699482033,1,0,1,0,0,0,0,0,0,0.0,0.0,0.0,3,10.67322392680223,30.56714032382166,34803.0,47067.0,49997.0,49221.0,56905.0,0.5068000127451113,0.6275270242781709,1.0
TAJAKANT,"Semitic: Arab, Bedouin",NO,TAJAKANT,,64.2689267845688,1,64.2689267845688,TAJAKANT,0.0,0.0,0.0,0.0,0.0,0.0,0.0,0.0,0.0,0.0,0.0,0,Algeria,0.0,109830.17617396118,2,0,0,1,0,0,0,0,1,0.0,0.0,0.0,6,28.156628821812365,-7.594880439435362,85231.0,81799.0,77762.0,75795.0,75532.0,0.2057438433285164,0.27924867856282687,1.0
TAGALI,"Semitic: Arab, Bedouin",NO,BAGGARA,,55.09075420493931,0,0.0,TAGALI,0.0,0.0,0.0,0.0,0.0,0.0,0.0,0.0,0.0,0.0,0.0,0,Sudan,0.0,6345.063177226219,1,0,1,0,0,0,0,0,0,0.0,0.0,0.0,5,12.121541844791864,31.418836760503954,125792.0,112367.0,110105.0,128660.0,148562.0,0.5215739200519117,0.6578346448582729,1.0
TABWA,Bantu,NO,TABWA,,39.05331691636858,1,39.05331691636858,TABWA,0.0,0.0,0.0,0.0,0.0,0.0,0.0,0.0,0.0,0.0,0.0,0,Dem Rep of the Congo,0.0,46974.0867320369,2,1,1,0,0,0,0,0,0,0.0,0.0,0.0,7,-8.290633586251895,29.58137443865417,715630.0,746356.0,768938.0,776063.0,749707.0,0.4242312116650755,0.63111831868988,2.0
SWAZI,Bantu,NO,SWAZI,,74.3592945221492,1,74.3592945221492,SWAZI,0.0,0.0,0.0,0.0,0.0,0.0,0.0,0.0,0.0,0.0,0.0,0,Swaziland,0.0,29257.191083894846,2,0,1,0,0,0,0,1,0,10.0,1.0,0.0,4,-26.56192277408118,31.33775980241935,1999653.0,2087787.0,2109444.0,2191992.0,1838991.0,0.19979486946098965,0.3300297251358162,2.0
SUSU,Northern Mande,YES,SUSU,,64.3528533791199,1,64.3528533791199,SUSU,1006.0,949.0,66294.0,13265.0,0.0,0.0,0.0,0.0,81514.0,0.0,81514.0,1,Guinea,1.0,34863.28070808295,3,0,1,1,0,0,0,1,0,0.0,1.0,0.0,7,10.260078407755438,-13.157699979418489,3763148.0,3869746.0,3931544.0,4000099.0,3815982.0,0.5728880473769383,0.7136714126883967,2.0
SURI,Chari-Nile,NO,SURI,,36.22679618412501,1,36.22679618412501,SURI,0.0,0.0,0.0,0.0,0.0,0.0,0.0,0.0,0.0,0.0,0.0,0,Ethiopia,0.0,17245.126111954585,2,0,1,0,0,1,0,0,0,0.0,0.0,0.0,6,6.093634441917085,35.290953337714214,224333.0,223948.0,225523.0,222770.0,188226.0,0.49586302501724905,0.6844008542888472,2.0
SUNDI,Kru,NO,MANYANGA,,25.471106908230958,0,6.852197174165246,SUNDI,0.0,0.0,0.0,12296.0,0.0,0.0,0.0,0.0,12296.0,0.0,12296.0,1,Rep of the Congo,0.0,24602.502448792427,2,1,0,1,0,0,0,0,0,0.0,0.0,0.0,4,-4.487852758795495,13.990015511528304,977543.0,998851.0,1013755.0,1030702.0,1052833.0,0.6086786390692641,0.8220280708874459,2.0
SUMBWA,Bantu,NO,SUMBWA,,96.55942162384758,1,96.55942162384758,SUMBWA,0.0,0.0,0.0,0.0,20.0,10.0,22.0,34.0,0.0,86.0,86.0,1,Tanzania,0.0,7878.904140522234,1,0,0,0,1,0,0,0,0,1.0,0.0,0.0,3,-3.62756041580066,31.72787280981097,382459.0,394556.0,406177.0,431234.0,454866.0,0.4115860843069696,0.6312343250771688,1.0
SUKUMA,Bantu,NO,SUKUMA,,77.16953685916059,1,77.16953685916059,SUKUMA,0.0,0.0,1238.0,1203.0,552.0,276.0,593.0,927.0,2441.0,2348.0,4789.0,1,Tanzania,0.0,39365.64497970391,1,0,0,0,1,0,0,0,0,0.0,7.0,0.0,6,-3.101093004021549,33.72648446058605,5107223.0,5250805.0,5397044.0,5532461.0,5549428.0,0.4283876896793815,0.6447425978282083,1.0
SUKU,Kru,NO,SUKU,,87.90466906577848,1,87.90466906577848,SUKU,0.0,0.0,1799.0,3292.0,0.0,0.0,0.0,0.0,5091.0,0.0,5091.0,1,Dem Rep of the Congo,0.0,9390.585172687113,1,1,0,0,0,0,0,0,0,0.0,0.0,0.0,5,-5.917505195624371,17.808870878897604,179719.0,206057.0,215291.0,220462.0,225730.0,0.4515469860916131,0.6638331524261842,2.0
SUK,Nilotic,NO,SUK,,67.91521081372446,1,67.91521081372446,SUK,0.0,0.0,0.0,0.0,0.0,0.0,0.0,0.0,0.0,0.0,0.0,0,Kenya,0.0,18880.84671401373,1,0,1,0,0,0,0,0,0,2.0,0.0,0.0,7,1.276575718780047,35.71236694830329,1168585.0,1184405.0,1204167.0,1191125.0,1206613.0,0.304845169779455,0.45033189775890553,6.0
SUBIA,Bantu,NO,SUBIYA,,43.64371972287404,1,43.64371972287404,SUBIA,0.0,0.0,0.0,0.0,0.0,0.0,0.0,0.0,0.0,0.0,0.0,0,Zambia,0.0,25431.52430123528,2,0,1,0,1,0,0,0,0,0.0,0.0,0.0,7,-17.655353766861985,24.79506029302899,390393.0,410407.0,428691.0,445200.0,432490.0,0.34547526354878283,0.48589310538543573,1.0
SUAFA,"Semitic: Arab, Bedouin",NO,SUAFA,,59.884231540747166,1,59.884231540747166,SUAFA,0.0,0.0,0.0,0.0,0.0,0.0,0.0,0.0,0.0,0.0,0.0,0,Algeria,0.0,14660.553706758436,1,0,0,1,0,0,0,0,0,0.0,0.0,1.0,6,33.91698058686236,6.766386452660947,525715.0,531739.0,542259.0,552043.0,561500.0,0.16117811596776935,0.22473266684579327,1.0
SOTHO,Bantu,NO,SOTHO,,71.35687096462884,1,71.35687096462884,SOTHO,0.0,0.0,0.0,0.0,0.0,0.0,0.0,0.0,0.0,0.0,0.0,0,South Africa,0.0,116644.809954546,1,0,1,0,0,0,0,0,0,1.0,15.0,0.0,8,-28.97495673931265,27.647941360990412,3705169.0,3900912.0,3857115.0,3884208.0,3933109.0,0.05171147234433074,0.10222431742479776,1.0
SONJO,Nilotic,NO,MAASAI,,62.41482055157419,0,37.58517944842587,SONJO,0.0,0.0,0.0,0.0,0.0,0.0,0.0,0.0,0.0,0.0,0.0,0,Tanzania,0.0,1651.8749626353003,2,0,1,0,1,0,0,0,0,0.0,0.0,0.0,1,-2.155086415480901,35.8265128127293,48967.0,50112.0,45039.0,47895.0,49650.0,0.29225021409643226,0.45892999879823226,6.0
SONINKE,Northern Mande,YES,SONINKE,,71.35750944508827,1,71.35750944508827,SONINKE,0.0,0.0,0.0,994.0,0.0,0.0,0.0,0.0,994.0,0.0,994.0,1,Mali,1.0,79378.32943363396,1,0,0,1,0,0,0,0,0,0.0,0.0,0.0,8,15.160663823087086,-9.477739185365678,1442687.0,1481965.0,1525358.0,1594183.0,1637087.0,0.34088396734890253,0.4282475960288151,1.0
SONGOMENO,Bantu,NO,NKUTSHU,,44.19298378230777,0,32.35677322867409,SONGOMENO,0.0,0.0,0.0,0.0,0.0,0.0,0.0,0.0,0.0,0.0,0.0,0,Dem Rep of the Congo,0.0,15684.558128730307,1,1,0,0,0,0,0,0,0,0.0,0.0,0.0,4,-3.726963241369344,22.69004430564624,252713.0,257670.0,263020.0,269501.0,275799.0,0.6273065339595573,0.843420282667673,2.0
SONGOLA,Bantu,NO,SONGOLA,,25.99278699672918,1,25.99278699672918,SONGOLA,0.0,0.0,0.0,0.0,20.0,10.0,22.0,34.0,0.0,86.0,86.0,1,Dem Rep of the Congo,0.0,36706.240125985736,1,1,0,0,0,0,0,0,0,0.0,0.0,0.0,6,-2.823834762049689,26.102423881357414,910330.0,961505.0,992499.0,1011807.0,1036248.0,0.6514851636274829,0.8608633072347305,2.0
SONGO,Kru,NO,SONGO,,67.83535134980578,1,67.83535134980578,SONGO,0.0,0.0,0.0,7866.0,0.0,0.0,0.0,0.0,7866.0,0.0,7866.0,1,Angola,0.0,36531.712536304294,1,0,0,0,0,0,0,1,0,0.0,0.0,0.0,5,-10.611856358252277,17.68436893335144,277603.0,284416.0,303444.0,297476.0,297646.0,0.2546636690168998,0.44267280181537894,1.0
SONGHAI,Songhai,NO,SONGHAI,,50.68520190448281,1,50.68520190448281,SONGHAI,0.0,0.0,0.0,35.0,0.0,0.0,0.0,0.0,35.0,0.0,35.0,1,Mali,1.0,65403.63823518735,1,0,0,1,0,0,0,0,0,0.0,0.0,0.0,9,15.371368947656004,-0.852616758935182,2036236.0,2130584.0,2180409.0,2270552.0,2356008.0,0.3143659981207986,0.4000537442536165,1.0
SONGE,Bantu,NO,SONGYE,,65.33020802005139,1,65.33020802005139,SONGE,0.0,0.0,0.0,0.0,0.0,0.0,0.0,0.0,0.0,0.0,0.0,0,Dem Rep of the Congo,0.0,72534.9150705913,1,1,0,0,0,0,0,0,0,0.0,0.0,0.0,6,-5.402397244787078,25.415608603140143,1806836.0,1854765.0,1905937.0,1940653.0,1986305.0,0.6137050760851708,0.8234994007944424,2.0
SOMRAI,West Atlantic,YES,NDAM,,30.25564731016382,0,9.199336294655213,SOMRAI,0.0,0.0,766.0,0.0,0.0,0.0,0.0,0.0,766.0,0.0,766.0,1,Chad,0.0,12594.034664070155,1,0,0,1,0,0,0,0,0,0.0,0.0,0.0,7,10.014085141359342,17.08467354650541,129011.0,119629.0,108157.0,95691.0,118466.0,0.4100898962582759,0.5028963473571357,1.0
SOMBA,Voltaic,NO,TAMBERAMA,"TAMARI, SOMBA",34.25744170052631,1,34.25744170052631,SOMBA,0.0,0.0,1715.0,0.0,0.0,0.0,0.0,0.0,1715.0,0.0,1715.0,1,Benin,1.0,8867.942093607531,2,0,0,1,1,0,0,0,0,0.0,0.0,0.0,7,10.479502732087889,1.424406647994696,466113.0,479491.0,494060.0,508045.0,521892.0,0.5161694576561315,0.6445958945134809,1.0
SOLIMAN,Saharan,NO,DJAGADA,,71.75772455650069,0,0.0,SOLIMAN,0.0,0.0,0.0,0.0,0.0,0.0,0.0,0.0,0.0,0.0,0.0,0,Chad,0.0,6890.761323722186,1,0,0,1,0,0,0,0,0,0.0,0.0,0.0,2,14.574319202051678,15.237921172390944,55794.0,59668.0,64288.0,71004.0,88117.0,0.30197443192487383,0.3831764077240566,1.0
SOKOTO,Cushitic,NO,SHIRAWA,,72.43158681208656,0,0.0,SOKOTO,0.0,0.0,0.0,0.0,0.0,0.0,0.0,0.0,0.0,0.0,0.0,0,Nigeria,1.0,25023.881272560728,2,0,1,1,0,0,0,0,0,0.0,0.0,0.0,8,12.78482301065809,4.421279377686732,3197796.0,3574911.0,3450652.0,3539560.0,3792448.0,0.4016574773028399,0.4989541038736209,1.0
SOKO,Bantu,NO,YALIWASA,,23.379185453309482,0,0.0,SOKO,0.0,0.0,0.0,2586.0,0.0,0.0,0.0,0.0,2586.0,0.0,2586.0,1,Dem Rep of the Congo,0.0,7150.8239045312375,1,1,0,0,0,0,0,0,0,0.0,0.0,0.0,7,1.44963560223681,23.675434953547246,191612.0,203753.0,212604.0,251540.0,256431.0,0.6757531180895888,0.8755071914968324,1.0
SOGA,Bantu,NO,KENYI,,59.559109708015434,0,0.0,SOGA,0.0,0.0,0.0,0.0,41.0,20.0,44.0,69.0,0.0,174.0,174.0,1,Uganda,0.0,15186.36345270805,1,0,1,0,0,0,0,0,0,1.0,0.0,0.0,5,0.956213291968094,33.572542352816676,4789045.0,4843427.0,5001273.0,5172012.0,5591906.0,0.47666577651621805,0.6895812582709201,1.0
SIWA,Berber,NO,SIWA,,67.28913272249592,1,67.28913272249592,SIWA,0.0,0.0,0.0,0.0,0.0,0.0,0.0,0.0,0.0,0.0,0.0,0,Egypt,0.0,20318.65364270195,1,0,1,0,0,0,0,0,0,0.0,0.0,0.0,3,29.022439603961057,25.815953130906028,27752.0,28454.0,30965.0,31723.0,30970.0,0.20706593152410663,0.2803846382911714,1.0
SIRTICANS,"Semitic: Arab, Bedouin",NO,SIRTICAN,,78.95885287194166,1,78.95885287194166,SIRTICANS,0.0,0.0,0.0,0.0,0.0,0.0,0.0,0.0,0.0,0.0,0.0,0,Libya,0.0,68734.18753888922,1,0,0,0,0,0,1,0,0,0.0,0.0,1.0,4,30.464136086568338,16.516761314235072,163640.0,177599.0,181384.0,185301.0,185039.0,0.2635309913034942,0.3687129941288164,1.0
SINZA,Bantu,NO,SUKUMA,,32.510912884830326,0,0.0,SINZA,0.0,0.0,0.0,0.0,41.0,20.0,44.0,69.0,0.0,174.0,174.0,1,Tanzania,0.0,13919.890347770412,1,0,0,0,1,0,0,0,0,0.0,0.0,0.0,7,-2.732484316370094,31.610005031163816,1412040.0,1445071.0,1483121.0,1523395.0,1752985.0,0.327715483451147,0.5594917873872975,2.0
SILA,Chari-Nile,NO,DAJU,,54.642691126493204,0,0.0,SILA,0.0,0.0,0.0,0.0,0.0,0.0,0.0,0.0,0.0,0.0,0.0,0,Chad,0.0,18786.221246173493,2,0,1,1,0,0,0,0,0,0.0,0.0,0.0,4,12.076157710649518,21.745568787627633,183168.0,189531.0,195270.0,200356.0,399873.0,0.340848069584947,0.4362271300747863,1.0
SIHANAKA,Malagasy,NO,BETSIMISARAKA,,74.70686362400627,0,18.04192165701005,SIHANAKA,0.0,307.0,265.0,1889.0,0.0,0.0,1087.0,1048.0,2461.0,2135.0,4596.0,1,Madagascar,0.0,14402.993621518453,1,0,0,1,0,0,0,0,0,0.0,0.0,0.0,4,-17.395735393537375,48.50983725920174,594905.0,610535.0,640263.0,676261.0,702059.0,0.22247726062227044,0.3743790899197436,5.0
SIDI,"Semitic: Arab, Bedouin",NO,SIDI,,83.67859778120565,1,83.67859778120565,SIDI,0.0,0.0,0.0,0.0,0.0,0.0,0.0,0.0,0.0,0.0,0.0,0,Algeria,0.0,110349.16054986777,1,0,0,1,0,0,0,0,0,0.0,0.0,1.0,7,31.762103675917494,0.796565321416869,112643.0,117157.0,119726.0,121354.0,123605.0,0.14738287679212358,0.20649370071453596,1.0
SIA,Northern Mande,YES,BOBO,,66.03458904674336,0,0.0,SIA,0.0,0.0,0.0,0.0,0.0,0.0,0.0,0.0,0.0,0.0,0.0,0,Burkina Faso,1.0,8189.516721033453,1,0,0,1,0,0,0,0,0,1.0,0.0,0.0,3,11.789259973841839,-4.194937065133036,1074582.0,1091372.0,1123903.0,1153213.0,1156159.0,0.4823057197690912,0.6007011443212023,1.0
SHUWA,"Semitic: Arab, Bedouin",NO,SHUWA,,44.899601343072234,1,44.899601343072234,SHUWA,0.0,0.0,0.0,0.0,0.0,0.0,0.0,0.0,0.0,0.0,0.0,0,Chad,0.0,36223.63242728969,3,0,1,1,1,0,0,0,0,0.0,0.0,0.0,7,12.377437333962968,15.274415076135647,1320113.0,1345449.0,1326997.0,1345804.0,1526268.0,0.35303548345956975,0.44211223189170185,1.0
SHUKRIA,"Semitic: Arab, Bedouin",NO,SHUKRIA,,56.54223739976343,1,56.54223739976343,SHUKRIA,0.0,0.0,0.0,0.0,0.0,0.0,0.0,0.0,0.0,0.0,0.0,0,Sudan,0.0,49764.40378425695,1,0,1,0,0,0,0,0,0,0.0,0.0,0.0,7,14.557601301342386,35.128914009724824,1880136.0,1932983.0,1958401.0,1947551.0,2249198.0,0.3036894599484279,0.38162353393778076,1.0
SHOGO,Bantu,NO,MITSOGHO,,92.18428039241901,0,0.0,SHOGO,0.0,0.0,0.0,376.0,0.0,0.0,0.0,0.0,376.0,0.0,376.0,1,Gabon,0.0,18015.70212557553,1,0,0,1,0,0,0,0,0,0.0,1.0,0.0,5,-1.070292079920976,11.946318214333935,58060.0,59522.0,49137.0,52733.0,63030.0,0.616033612358251,0.8192251034944961,5.0
SHLUH,Berber,NO,SHLUH,,90.93333774284505,1,90.93333774284505,SHLUH,0.0,0.0,0.0,0.0,0.0,0.0,0.0,0.0,0.0,0.0,0.0,0,Morocco,0.0,63948.359444311965,1,0,0,1,0,0,0,0,0,0.0,0.0,1.0,5,30.357472426081827,-8.311965490812407,3324976.0,3352374.0,3384936.0,3400755.0,3530632.0,0.11770498654046543,0.18107281219245688,6.0
SHILLUK,Nilotic,NO,SHILLUK,,76.01259635887156,1,76.01259635887156,SHILLUK,0.0,0.0,0.0,0.0,0.0,0.0,0.0,0.0,0.0,0.0,0.0,0,South Sudan,0.0,14143.042199609697,1,0,1,0,0,0,0,0,0,0.0,0.0,0.0,4,9.904533749683385,31.74811370922107,387985.0,420359.0,433584.0,463630.0,396147.0,0.4873509438862905,0.5905333483525977,1.0
SHILA,Bantu,NO,KUNDA,,31.255498479854925,0,10.959537316794423,SHILA,0.0,0.0,0.0,0.0,0.0,0.0,0.0,0.0,0.0,0.0,0.0,0,Dem Rep of the Congo,0.0,19747.742596570366,2,1,1,0,0,0,0,0,0,0.0,1.0,0.0,5,-9.450473727186237,28.194044065146123,243863.0,233195.0,227555.0,218226.0,226343.0,0.35541512662788216,0.546110679307216,1.0
SHERBRO,Southern Mande,YES,MENDE,,41.75211307550086,0,38.26393159577639,SHERBRO,0.0,0.0,0.0,2685.0,0.0,0.0,0.0,0.0,2685.0,0.0,2685.0,1,Sierra Leone,1.0,8327.719881764808,1,0,1,0,0,0,0,0,0,0.0,0.0,0.0,3,7.644749406224075,-12.305491388562524,403611.0,389658.0,397682.0,431569.0,441936.0,0.7390560700009159,0.9047093558633413,1.0
SHEBELLE,Cushitic,NO,HAWIYA,,65.56018618613638,0,27.51637802173435,SHEBELLE,0.0,0.0,0.0,0.0,0.0,0.0,0.0,0.0,0.0,0.0,0.0,0,Ethiopia,0.0,8528.491856244966,2,0,0,0,0,1,1,0,0,0.0,0.0,0.0,2,5.110113589446,44.99222792038173,210162.0,222183.0,233475.0,251862.0,195841.0,0.5423889404101718,0.6482541017966876,1.0
SHAWIA,Berber,NO,CHAOUIA,SHAWIA,64.04105123464511,1,64.04105123464511,SHAWIA,0.0,0.0,0.0,0.0,0.0,0.0,0.0,0.0,0.0,0.0,0.0,0,Algeria,0.0,36332.47150995216,1,0,0,1,0,0,0,0,0,0.0,0.0,1.0,6,35.489874801880596,6.790064776232338,3412332.0,3473653.0,3537118.0,3598253.0,3658588.0,0.10830162505833366,0.16380537337146872,1.0
SHASHI,Bantu,NO,IKOMA,NATA,30.49309716033318,0,0.0,SHASHI,0.0,0.0,0.0,0.0,0.0,0.0,0.0,0.0,0.0,0.0,0.0,0,Tanzania,0.0,15407.311003535391,2,0,1,0,1,0,0,0,0,1.0,0.0,0.0,4,-1.94389574933452,34.47072802295154,864899.0,889310.0,944452.0,971528.0,980345.0,0.30725985304925396,0.5122715702826003,1.0
SHAMBALA,Bantu,NO,SHAMBAA,,53.17554785515852,1,53.17554785515852,SHAMBALA,0.0,0.0,0.0,0.0,880.0,440.0,944.0,1477.0,0.0,3741.0,3741.0,1,Tanzania,0.0,6391.807589168429,2,0,1,0,1,0,0,0,0,0.0,0.0,0.0,7,-4.685549441019587,38.41900504557213,576879.0,595296.0,614205.0,651520.0,703825.0,0.41219867486817513,0.6017096166441397,1.0
SHAIKIA,"Semitic: Arab, Bedouin",NO,SHAIKIA,,66.86336424330818,1,66.86336424330818,SHAIKIA,0.0,0.0,0.0,0.0,0.0,0.0,0.0,0.0,0.0,0.0,0.0,0,Sudan,0.0,32227.453630327247,1,0,1,0,0,0,0,0,0,0.0,0.0,0.0,3,17.973361289299024,32.392643251385984,310508.0,245002.0,264035.0,271513.0,311222.0,0.23933390219319847,0.31871986996135776,1.0
SERER,West Atlantic,NO,SERER,,52.83021708492678,1,52.83021708492678,SERER,137.0,435.0,1291.0,511.0,0.0,0.0,0.0,0.0,2374.0,0.0,2374.0,1,Senegal,1.0,16647.370699543048,2,0,1,1,0,0,0,0,0,0.0,0.0,0.0,3,14.021415089429183,-16.048326306977234,2180588.0,2216446.0,2262637.0,2321931.0,2445083.0,0.4678209480639984,0.5815709363088073,1.0
SENUFO,Voltaic,NO,FODONON,,28.974753798566915,0,0.0,SENUFO,0.0,0.0,0.0,0.0,0.0,0.0,0.0,0.0,0.0,0.0,0.0,0,Cote d'Ivoire,1.0,61137.459520335906,1,0,0,1,0,0,0,0,0,0.0,2.0,0.0,11,9.253283098086415,-5.607984250006562,2011289.0,2055710.0,2097421.0,2139867.0,2319231.0,0.6088971633407855,0.7586544283555519,1.0
SENGA,Bantu,NO,SENGA,,63.19906375515306,1,63.19906375515306,SENGA,0.0,0.0,0.0,0.0,675.0,338.0,725.0,1134.0,0.0,2872.0,2872.0,1,Zambia,0.0,15346.444814540702,1,0,1,0,0,0,0,0,0,0.0,0.0,0.0,6,-11.31190498092517,32.72208629832682,95359.0,107488.0,110632.0,117930.0,116313.0,0.44315749692538947,0.6290022248223558,1.0
SENA,Bantu,NO,SENA,,70.13538598063971,1,70.13538598063971,SENA,0.0,0.0,0.0,88803.0,0.0,0.0,0.0,0.0,88803.0,0.0,88803.0,1,Mozambique,0.0,23359.46698004359,1,0,0,0,0,0,0,1,0,0.0,0.0,0.0,6,-18.108134004826354,34.728200251161915,408658.0,428444.0,440401.0,457143.0,500807.0,0.49850205762548766,0.6591729521170057,1.0
SELIM,"Semitic: Arab, Bedouin",NO,GIMMA,,65.64711195938658,0,0.0,SELIM,0.0,0.0,0.0,0.0,0.0,0.0,0.0,0.0,0.0,0.0,0.0,0,Sudan,0.0,30000.514823184327,1,0,1,0,0,0,0,0,0,0.0,0.0,0.0,8,11.252924204609013,31.921073076612508,425542.0,370840.0,332191.0,344781.0,405220.0,0.4859211739062063,0.5983527025964496,1.0
SELE,Bantu,NO,ESELE,,42.22461980135979,1,42.22461980135979,SELE,0.0,0.0,0.0,2753.0,0.0,0.0,0.0,0.0,2753.0,0.0,2753.0,1,Angola,0.0,16517.79932911881,1,0,0,0,0,0,0,1,0,1.0,0.0,1.0,4,-11.22239559376158,14.151071198495213,747008.0,764066.0,794609.0,866696.0,884188.0,0.5621068592184625,0.7750762022241107,2.0
SEKE,Bantu,NO,LENGI,,48.91212455589845,0,0.0,SEKE,0.0,0.0,0.0,1392.0,0.0,0.0,0.0,0.0,1392.0,0.0,1392.0,1,Gabon,0.0,7713.6363691812885,2,0,0,1,0,0,0,0,1,0.0,0.0,0.0,3,0.662200646113647,9.895956548544474,29870.0,29950.0,27715.0,32256.0,35963.0,0.6863449915145783,0.8860459369088026,2.0
SEGEJU,Bantu,NO,POKOMO,,55.129006595650644,0,0.0,SEGEJU,0.0,0.0,0.0,0.0,164.0,82.0,176.0,275.0,0.0,697.0,697.0,1,Kenya,0.0,10778.758526760286,2,0,1,0,1,0,0,0,0,0.0,0.0,0.0,6,-3.213713619000191,39.996837104491945,2239206.0,2291337.0,2335623.0,2344362.0,2385980.0,0.7155258883306865,0.892603177299658,1.0
SAPO,Kwa,NO,"KRAN, NGERE",,90.59509151721858,0,0.0,SAPO,0.0,0.0,0.0,0.0,0.0,0.0,0.0,0.0,0.0,0.0,0.0,0,Liberia,1.0,6664.951372162449,1,0,0,0,0,1,0,0,0,0.0,0.0,0.0,4,5.753776309611169,-8.508603342251366,53892.0,55981.0,66380.0,71894.0,73960.0,0.6806363815915475,0.8527632529207099,2.0
SANYE,Cushitic,NO,ORANA,,62.82019531938079,0,0.0,SANYE,0.0,0.0,0.0,0.0,0.0,0.0,0.0,0.0,0.0,0.0,0.0,0,Kenya,0.0,30266.875395274146,1,0,1,0,0,0,0,0,0,0.0,0.0,0.0,5,-1.755822895581326,39.445270649415804,233360.0,225922.0,225459.0,166849.0,175172.0,0.6286366443189838,0.7809498500352858,1.0
SANUSI,"Semitic: Arab, Bedouin",NO,SANUSI,,80.68668737843919,1,80.68668737843919,SANUSI,0.0,0.0,0.0,0.0,0.0,0.0,0.0,0.0,0.0,0.0,0.0,0,Libya,0.0,192750.61824786002,2,0,1,0,0,0,1,0,0,0.0,0.0,1.0,7,30.38829038812304,21.88474298190275,375150.0,403756.0,411724.0,419167.0,418512.0,0.25086079071793255,0.3464668458488761,1.0
SANGU,Bantu,NO,SANGU,,61.334108116426854,1,61.334108116426854,SANGU,0.0,0.0,0.0,0.0,0.0,0.0,0.0,0.0,0.0,0.0,0.0,0,Tanzania,0.0,17191.1499212023,1,0,0,0,1,0,0,0,0,0.0,0.0,0.0,5,-8.088358987030926,34.09079705116835,288003.0,295478.0,302566.0,306851.0,215667.0,0.3086044928123616,0.5032472133096668,1.0
SANGA,Bantu,NO,BONGILI,,21.54886183310922,0,6.04330015649407,SANGA,0.0,0.0,2434.0,5909.0,0.0,0.0,0.0,0.0,8343.0,0.0,8343.0,1,Rep of the Congo,0.0,53621.69616329031,2,0,0,1,1,0,0,0,0,0.0,2.0,0.0,9,2.260324259915838,16.185262556700422,267164.0,273966.0,276869.0,291745.0,298981.0,0.6252105365845889,0.8388275252444812,2.0
SANDAWE,Cushitic,NO,BURUNGE,,17.381750028928735,0,0.0,SANDAWE,0.0,0.0,0.0,0.0,0.0,0.0,0.0,0.0,0.0,0.0,0.0,0,Tanzania,0.0,6636.760231923408,1,0,0,0,1,0,0,0,0,0.0,0.0,0.0,5,-5.227838330943601,35.59118405681357,266550.0,270738.0,276332.0,262382.0,197941.0,0.34161917572609113,0.5350083239730423,2.0
SAMO,Northern Mande,NO,SAN,,33.938077316797894,0,0.0,SAMO,0.0,0.0,0.0,0.0,0.0,0.0,0.0,0.0,0.0,0.0,0.0,0,Burkina Faso,1.0,8126.651575067027,1,0,0,1,0,0,0,0,0,0.0,0.0,0.0,4,13.3766020665926,-2.901599927732113,405735.0,412093.0,423916.0,427961.0,392867.0,0.4015691599703904,0.4962232521999386,1.0
SAMBURU,Nilotic,NO,SAMBURU,,37.792534345218286,1,37.792534345218286,SAMBURU,0.0,0.0,0.0,0.0,0.0,0.0,0.0,0.0,0.0,0.0,0.0,0,Kenya,0.0,42896.22127385427,1,0,1,0,0,0,0,0,0,0.0,0.0,0.0,8,1.089913679805318,36.91338648504011,1629350.0,1646032.0,1672833.0,1630195.0,1660744.0,0.2276735307115825,0.3369483554924808,2.0
SALA,Chari-Nile,NO,SAR,,32.844922460135116,0,0.0,SALA,0.0,0.0,0.0,0.0,0.0,0.0,0.0,0.0,0.0,0.0,0.0,0,Chad,0.0,38545.33660381763,2,0,0,1,1,0,0,0,0,0.0,0.0,1.0,7,8.814895188463487,17.573773072351234,1640339.0,1695069.0,1712315.0,1768839.0,2321805.0,0.4724694918946469,0.5878575719836469,1.0
SAKATA,Bantu,NO,BUMA,,27.059630570119907,0,23.53850600342359,SAKATA,0.0,0.0,0.0,588.0,20.0,10.0,22.0,34.0,588.0,86.0,674.0,1,Dem Rep of the Congo,0.0,35362.817580420684,1,1,0,0,0,0,0,0,0,0.0,0.0,0.0,4,-2.840891377216142,17.7798618876677,989327.0,1034894.0,1068926.0,1100321.0,1116306.0,0.7025912407657766,0.8939244996620154,1.0
SAKALAVA,Malagasy,NO,SAKALAVA,,62.55882208836023,1,62.55882208836023,SAKALAVA,0.0,4436.0,3823.0,27276.0,0.0,0.0,15687.0,15125.0,35535.0,30812.0,66347.0,1,Madagascar,0.0,205980.06268707468,1,0,0,1,0,0,0,0,0,0.0,0.0,1.0,6,-17.645857512867842,46.05006569269245,4105361.0,4211253.0,4310888.0,4420671.0,4532751.0,0.550224576955918,0.7098407375191522,1.0
SAHO,Cushitic,NO,SAHO,,69.13223421611191,1,69.13223421611191,SAHO,0.0,0.0,0.0,0.0,0.0,0.0,0.0,0.0,0.0,0.0,0.0,0,Ethiopia,0.0,10454.331004686921,2,0,0,0,0,1,1,0,0,0.0,0.0,0.0,4,14.343462932763664,39.9273114067339,202131.0,221325.0,215656.0,217358.0,87273.0,0.4438492869602815,0.5727163999135257,6.0
SAHEL,"Semitic: Arab, Bedouin",NO,SAHEL,,76.62412477939566,1,76.62412477939566,SAHEL,0.0,0.0,0.0,0.0,0.0,0.0,0.0,0.0,0.0,0.0,0.0,0,Tunisia,0.0,10909.376147546971,1,0,0,1,0,0,0,0,0,0.0,0.0,1.0,2,35.54398564806565,10.497237914730153,2452147.0,2482479.0,2547324.0,2608961.0,2634614.0,0.22849920030912335,0.318769709629052,1.0
SAGARA,Bantu,NO,SAGARA,,49.83527052486492,1,49.83527052486492,SAGARA,0.0,0.0,0.0,0.0,10228.0,5114.0,10981.0,17175.0,0.0,43498.0,43498.0,1,Tanzania,0.0,17332.132126409684,1,0,0,0,1,0,0,0,0,0.0,0.0,0.0,6,-6.81424708682135,36.8441516945336,870492.0,913506.0,957962.0,1001628.0,1064007.0,0.3796232988633862,0.5664688887512843,6.0
SAFWA,Bantu,NO,BUNGU,WUNGU,22.63407136779099,0,16.076805263903086,SAFWA,0.0,0.0,0.0,0.0,0.0,0.0,0.0,0.0,0.0,0.0,0.0,0,Tanzania,0.0,14543.147217704021,1,0,0,0,1,0,0,0,0,0.0,0.0,0.0,7,-8.543342171666886,33.1464468984218,1163005.0,1198140.0,1231546.0,1277211.0,1488117.0,0.3481669245251831,0.5410289644668391,1.0
SABEI,Bantu,NO,GISU,MASABA,44.719573466011326,0,0.0,SABEI,0.0,0.0,0.0,0.0,0.0,0.0,0.0,0.0,0.0,0.0,0.0,0,Kenya,0.0,3252.1718877871,1,0,1,0,0,0,0,0,0,0.0,0.0,0.0,5,1.197009977883195,34.697714388499676,550828.0,617488.0,631555.0,628807.0,650337.0,0.05440112150978817,0.11668459240812319,6.0
SAB,Cushitic,NO,HAWIYA,,64.86672172216933,0,18.262093968147802,SAB,0.0,0.0,0.0,0.0,0.0,0.0,0.0,0.0,0.0,0.0,0.0,0,Somalia,0.0,110374.73556349058,2,0,0,0,0,1,1,0,0,0.0,0.0,1.0,5,2.785427653964025,43.85152402271977,3955979.0,4028630.0,3886331.0,3949178.0,4014820.0,0.5949836926037677,0.7238712356388535,1.0
SAADI,"Semitic: Arab, Bedouin",NO,SAADI,,79.1478838504464,1,79.1478838504464,SAADI,0.0,0.0,0.0,0.0,0.0,0.0,0.0,0.0,0.0,0.0,0.0,0,Egypt,0.0,171111.61176435841,2,0,1,0,0,0,1,0,0,0.0,0.0,1.0,7,29.33608186249127,27.846801773372384,330709.0,338516.0,368707.0,377763.0,376653.0,0.2548433054172713,0.35162345085796953,1.0
RUNGA,Saharan,NO,RUNGA,,71.57284374092428,1,71.57284374092428,RUNGA,0.0,0.0,0.0,0.0,0.0,0.0,0.0,0.0,0.0,0.0,0.0,0,Chad,0.0,50481.46766589706,2,0,1,1,0,0,0,0,0,0.0,0.0,0.0,6,10.686545039793454,21.43089609637701,154827.0,158426.0,149340.0,137006.0,168993.0,0.3714068508414902,0.47182791457542617,1.0
RUNDI,Bantu,NO,UJOGOMA,,82.05510514514269,0,0.0,RUNDI,0.0,0.0,0.0,0.0,20.0,10.0,22.0,34.0,0.0,86.0,86.0,1,Burundi,0.0,31076.36500413675,2,1,0,0,1,0,0,0,0,0.0,0.0,0.0,5,-3.282205949494215,30.087460655138962,10939592.0,11337048.0,11706018.0,12062735.0,12474384.0,0.13892019928375762,0.2959719733481628,6.0
RUMBI,Bantu,NO,BAALI,,59.009505882853965,0,0.0,RUMBI,0.0,0.0,0.0,118.0,0.0,0.0,0.0,0.0,118.0,0.0,118.0,1,Dem Rep of the Congo,0.0,10496.830619957796,1,1,0,0,0,0,0,0,0,0.0,0.0,0.0,2,0.63315405434775,27.073807132682784,32105.0,35657.0,34671.0,24778.0,25137.0,0.6088172937449104,0.830465728063925,2.0
RUFFA,"Semitic: Arab, Bedouin",NO,GIMMA,,58.723145536842246,0,0.0,RUFFA,0.0,0.0,0.0,0.0,0.0,0.0,0.0,0.0,0.0,0.0,0.0,0,Sudan,0.0,68001.69976235078,2,0,1,0,0,1,0,0,0,0.0,0.0,0.0,7,13.165728748290372,34.25216716990257,3261646.0,3371722.0,3433479.0,3545802.0,4092489.0,0.3295592626356333,0.40973153489112596,1.0
RUARHA,"Semitic: Arab, Bedouin",NO,ULED NAIL,,43.15665531081313,0,10.19190443530653,RUARHA,0.0,0.0,0.0,0.0,0.0,0.0,0.0,0.0,0.0,0.0,0.0,0,Algeria,0.0,7367.240057146053,1,0,0,1,0,0,0,0,0,0.0,0.0,1.0,4,33.32256940124776,5.911597522185066,396958.0,401839.0,408096.0,415222.0,422199.0,0.16219014653654687,0.22363395079528897,1.0
RUANDA,Bantu,NO,TUTSI,,71.8813356057005,0,0.0,RUANDA,0.0,0.0,0.0,0.0,0.0,0.0,0.0,0.0,0.0,0.0,0.0,0,Rwanda,0.0,24743.423840913958,3,1,1,0,1,0,0,0,0,0.0,0.0,0.0,8,-1.931104853641,29.93537258760911,11711001.0,11946147.0,12231928.0,11266382.0,11499432.0,0.1182379668951446,0.26265158657537613,6.0
RONGA,Bantu,NO,RONGA,,61.863345323768506,1,61.863345323768506,RONGA,0.0,0.0,0.0,0.0,0.0,0.0,0.0,0.0,0.0,0.0,0.0,0,Mozambique,0.0,21363.121698940195,2,0,1,0,0,0,0,1,0,0.0,1.0,0.0,3,-26.518120765521186,32.42388973870859,2970070.0,3057554.0,3147532.0,3574575.0,3642984.0,0.3961171911626817,0.5777239011391504,1.0
ROLONG,Bantu,NO,TAWANA,,84.04556976027855,0,0.0,ROLONG,0.0,0.0,0.0,0.0,0.0,0.0,0.0,0.0,0.0,0.0,0.0,0,South Africa,0.0,69142.10013823064,1,0,1,0,0,0,0,0,0,69.0,12.0,0.0,6,-26.916827980156622,25.565818990844352,1864814.0,2091720.0,2043000.0,2078173.0,2092401.0,0.16348376631338837,0.256912595400336,1.0
RIYAH,"Semitic: Arab, Bedouin",NO,RIYAH,,56.316739891901456,1,56.316739891901456,RIYAH,0.0,0.0,0.0,0.0,0.0,0.0,0.0,0.0,0.0,0.0,0.0,0,Libya,0.0,250170.11270251704,2,0,0,1,0,0,1,0,0,0.0,0.0,1.0,9,29.394571600944705,12.343807249107359,286972.0,287647.0,292043.0,295701.0,296103.0,0.1836552455417132,0.2532606634575761,1.0
RIF,Berber,NO,RIF,,88.66393485587722,1,88.66393485587722,RIF,0.0,0.0,0.0,0.0,0.0,0.0,0.0,0.0,0.0,0.0,0.0,0,Morocco,0.0,20273.711688218278,2,0,0,1,0,0,0,0,1,0.0,0.0,0.0,4,34.79075429419958,-3.71829228689347,2394974.0,2426952.0,2460986.0,2465384.0,2288755.0,0.14387675077267978,0.2164010126458297,6.0
RESHIAT,Cushitic,NO,KONSO,,61.38943702192442,0,0.0,RESHIAT,0.0,0.0,0.0,0.0,0.0,0.0,0.0,0.0,0.0,0.0,0.0,0,Ethiopia,0.0,12444.84607240264,2,0,1,0,0,1,0,0,0,0.0,0.0,0.0,6,4.921447492516018,36.30841863035384,182651.0,192626.0,206677.0,215551.0,94979.0,0.5718642933676088,0.7164617747827129,1.0
RESHE,Bantoid,NO,KAMBARI,,37.05577405627558,0,0.0,RESHE,0.0,0.0,0.0,0.0,0.0,0.0,0.0,0.0,0.0,0.0,0.0,0,Nigeria,1.0,3323.471839518427,1,0,1,0,0,0,0,0,0,0.0,0.0,0.0,5,11.155999271492844,4.698977028901401,328510.0,347271.0,334712.0,342770.0,366282.0,0.4976264998003889,0.6251567490276373,1.0
RENDILE,Cushitic,NO,ORANA,,75.93032228923435,0,16.183593601831095,RENDILE,0.0,0.0,0.0,0.0,2.0,1.0,2.0,4.0,0.0,9.0,9.0,1,Kenya,0.0,26302.92862639248,2,0,1,0,0,1,0,0,0,0.0,0.0,0.0,3,3.470225703030749,36.96912018237706,43649.0,42735.0,42363.0,49840.0,48969.0,0.5645550106447689,0.6960257628751014,1.0
REGEIBAT,"Semitic: Arab, Bedouin",NO,REGEIBAT,,63.657126298544085,1,63.657126298544085,REGEIBAT,0.0,0.0,0.0,0.0,0.0,0.0,0.0,0.0,0.0,0.0,0.0,0,Mauritania,1.0,352722.0618158339,2,0,0,1,0,0,0,0,1,0.0,3.0,0.0,8,22.853257567768953,-12.164877466298798,138296.0,141496.0,145479.0,169182.0,155031.0,0.2620797375484624,0.3717097136079275,1.0
REGA,Bantu,NO,LEGA,,70.34908751185974,0,0.0,REGA,0.0,0.0,0.0,0.0,0.0,0.0,0.0,0.0,0.0,0.0,0.0,0,Dem Rep of the Congo,0.0,62537.42002728879,1,1,0,0,0,0,0,0,0,0.0,0.0,0.0,7,-2.932034785560618,27.73298427125978,2005574.0,2083516.0,2125811.0,2099370.0,2108165.0,0.4220426148579014,0.6285147665303922,6.0
RANGI,Bantu,NO,IRANGI,,81.34699473752721,1,81.34699473752721,RANGI,0.0,0.0,0.0,0.0,0.0,0.0,0.0,0.0,0.0,0.0,0.0,0,Tanzania,0.0,4321.637704355203,1,0,0,0,1,0,0,0,0,0.0,0.0,0.0,5,-4.630805213905784,36.03694752697839,175772.0,178571.0,180574.0,193968.0,211289.0,0.2915047506098691,0.4805733058763587,1.0
PUKU,Bantu,NO,LENGI,,46.618885237832956,0,0.0,PUKU,0.0,0.0,0.0,0.0,0.0,0.0,0.0,0.0,0.0,0.0,0.0,0,Equatorial Guinea,0.0,10263.45779696386,3,0,0,1,1,0,0,0,1,0.0,0.0,0.0,3,1.733393523563251,9.811910603545632,922855.0,978025.0,1076655.0,1105240.0,1268696.0,0.7159033783425297,0.9184027317221987,2.0
POTO,Bantu,NO,NGOMBE,,21.074419202661687,0,20.226371761844476,POTO,0.0,590.0,59365.0,2822.0,0.0,0.0,0.0,0.0,62777.0,0.0,62777.0,1,Dem Rep of the Congo,0.0,10114.084185334115,1,1,0,0,0,0,0,0,0,0.0,0.0,0.0,5,2.142148191763246,22.02910318797976,721501.0,791281.0,815793.0,929907.0,944483.0,0.6740773338607595,0.8698847903481013,1.0
POPOI,Chari-Nile,NO,MAPOPOI,,69.3711004816614,1,69.3711004816614,POPOI,0.0,0.0,0.0,0.0,0.0,0.0,0.0,0.0,0.0,0.0,0.0,0,Dem Rep of the Congo,0.0,5425.5531739838525,1,1,0,0,0,0,0,0,0,0.0,0.0,0.0,3,1.993547553465431,26.17093351932208,29213.0,26969.0,29497.0,29837.0,30095.0,0.6333635833144863,0.8464752638992684,2.0
POPO,Kru,NO,EWE,EVHE,77.30533092746097,0,0.0,POPO,0.0,25422.0,2915.0,47045.0,0.0,0.0,0.0,0.0,75382.0,0.0,75382.0,1,Benin,1.0,1836.5049750099113,2,0,0,1,1,0,0,0,0,0.0,0.0,0.0,2,6.394816611297244,1.884765499189555,632403.0,644962.0,658255.0,661002.0,660805.0,0.7239749499270983,0.872970309493747,1.0
PONDO,Bantu,NO,XHOSA,,99.93638747206592,0,0.0,PONDO,0.0,0.0,0.0,0.0,0.0,0.0,0.0,0.0,0.0,0.0,0.0,0,South Africa,0.0,11546.359818482613,1,0,1,0,0,0,0,0,0,1.0,0.0,0.0,2,-31.389367274212738,29.31026239649055,1268695.0,1407387.0,1425767.0,1451507.0,1465406.0,0.0719805696775671,0.1748857114569455,6.0
POKOMO,Cushitic,NO,ORANA,,51.75740205542295,0,24.335728054052282,POKOMO,0.0,0.0,0.0,0.0,20.0,10.0,22.0,34.0,0.0,86.0,86.0,1,Kenya,0.0,11845.056832036851,1,0,1,0,0,0,0,0,0,0.0,0.0,0.0,5,-0.953975302576656,39.82279823001522,261036.0,283649.0,304143.0,379295.0,378400.0,0.580539713823381,0.7021080819315232,1.0
POGORO,Bantu,NO,POGORO,,51.361597886399515,1,51.361597886399515,POGORO,0.0,0.0,0.0,0.0,20.0,10.0,22.0,34.0,0.0,86.0,86.0,1,Tanzania,0.0,9684.474590270569,1,0,0,0,1,0,0,0,0,0.0,0.0,0.0,4,-8.793734699099165,36.65624600607489,131547.0,139639.0,144088.0,149575.0,243542.0,0.6090803526633801,0.8143930537529448,2.0
PODOKWO,Chadic,NO,MUSGU,,100.0,0,0.0,PODOKWO,0.0,0.0,0.0,0.0,0.0,0.0,0.0,0.0,0.0,0.0,0.0,0,Cameroon,0.0,1073.1967454074907,1,0,0,0,1,0,0,0,0,0.0,0.0,0.0,4,11.055666416427012,14.129946984551879,252339.0,288082.0,327669.0,342418.0,351857.0,0.4626498222351074,0.5874785423278809,1.0
PIMBWE,Bantu,NO,NKANSI,,47.19927261699422,0,12.62362238997699,PIMBWE,0.0,0.0,0.0,0.0,0.0,0.0,0.0,0.0,0.0,0.0,0.0,0,Tanzania,0.0,10471.162310512795,1,0,0,0,1,0,0,0,0,0.0,0.0,0.0,4,-7.168727350465448,31.60402604777567,65091.0,65346.0,65855.0,64032.0,122771.0,0.581811815963508,0.7669839809595612,1.0
PEPEL,West Atlantic,NO,MANDYAK,,61.094667763483415,0,0.0,PEPEL,9141.0,16321.0,1982.0,1326.0,0.0,0.0,0.0,0.0,28770.0,0.0,28770.0,1,Guinea-Bissau,1.0,4090.321258922065,1,0,0,0,0,0,0,1,0,0.0,0.0,0.0,2,12.047389209357897,-15.938476738164473,654640.0,668350.0,679365.0,692197.0,708068.0,0.6415435962927707,0.7933688085163259,1.0
PENDE,Bantu,NO,PENDE,,60.99296549461625,1,60.99296549461625,PENDE,0.0,0.0,0.0,0.0,0.0,0.0,0.0,0.0,0.0,0.0,0.0,0,Dem Rep of the Congo,0.0,18306.129946375248,1,1,0,0,0,0,0,0,0,0.0,1.0,0.0,7,-6.036115759140329,19.718469171833608,1393187.0,1211387.0,1229845.0,1259656.0,1289692.0,0.5660260373130863,0.7824865982283831,2.0
PEMBA,,,,,0.0,0,0.0,PEMBA,0.0,0.0,0.0,0.0,205.0,102.0,220.0,344.0,0.0,871.0,871.0,1,Tanzania,0.0,942.044660520085,2,0,1,0,1,0,0,0,0,0.0,0.0,0.0,0,-5.181710035956632,39.7573278190734,436659.0,447614.0,458971.0,464433.0,477790.0,0.705161850276642,0.8934815467208593,1.0
PEDI,Bantu,NO,SWAZI,,23.89205595420942,0,0.0,PEDI,0.0,0.0,0.0,0.0,0.0,0.0,0.0,0.0,0.0,0.0,0.0,0,South Africa,0.0,66675.76367671543,1,0,1,0,0,0,0,0,0,22.0,0.0,0.0,10,-25.920681556297016,29.81269452348145,3454682.0,3837200.0,4162094.0,4148404.0,4186255.0,0.07932043221086597,0.15565679675939842,2.0
PARI,Nilotic,NO,OTUHU,LOTUKO,79.61046178910067,0,20.389538210899342,PARI,0.0,0.0,0.0,0.0,0.0,0.0,0.0,0.0,0.0,0.0,0.0,0,South Sudan,0.0,2713.3934958735563,1,0,1,0,0,0,0,0,0,0.0,0.0,0.0,2,5.318587426711474,32.696854403853344,19852.0,19735.0,20052.0,16295.0,1201.0,0.5389977861707164,0.6554987032581255,1.0
PARE,Bantu,NO,PARE,,96.16887635941629,1,96.16887635941629,PARE,0.0,0.0,0.0,0.0,675.0,338.0,725.0,1134.0,0.0,2872.0,2872.0,1,Tanzania,0.0,7050.421081138703,2,0,1,0,1,0,0,0,0,0.0,0.0,0.0,5,-4.106837164360722,37.89621761617851,329733.0,338972.0,348226.0,344665.0,373532.0,0.42098897150535197,0.6227334017446783,1.0
PANDE,Bantu,NO,KAKO,KAKA,43.8839109181307,0,0.0,PANDE,0.0,0.0,0.0,0.0,0.0,0.0,0.0,0.0,0.0,0.0,0.0,0,Rep of the Congo,0.0,19071.88924492288,2,0,0,1,1,0,0,0,0,0.0,1.0,0.0,7,3.361737705257558,17.022818589787107,63752.0,59656.0,53493.0,50994.0,46691.0,0.5879491033666756,0.8089192708333334,2.0
PADANG,Nilotic,NO,DINKA,JIENG,72.27859166704562,0,0.0,PADANG,0.0,0.0,0.0,0.0,0.0,0.0,0.0,0.0,0.0,0.0,0.0,0,South Sudan,0.0,30110.795656421942,1,0,1,0,0,0,0,0,0,1.0,0.0,1.0,8,10.183960192429064,32.50997869310879,303732.0,291387.0,301296.0,277782.0,267805.0,0.4798496474618651,0.585104827275521,1.0
ORRI,Bantoid,NO,NHAM,,42.35646655857789,0,0.0,ORRI,0.0,0.0,0.0,0.0,0.0,0.0,0.0,0.0,0.0,0.0,0.0,0,Nigeria,1.0,2381.4430564006407,1,0,1,0,0,0,0,0,0,0.0,0.0,0.0,5,6.575146604483894,8.358174154903091,506374.0,462230.0,442682.0,453324.0,483795.0,0.6724640597246891,0.8116590808170515,1.0
OMETO,Chadic,NO,OMETO,,67.94573745246238,1,67.94573745246238,OMETO,0.0,0.0,0.0,0.0,0.0,0.0,0.0,0.0,0.0,0.0,0.0,0,Ethiopia,0.0,26616.10459688772,1,0,0,0,0,1,0,0,0,0.0,0.0,0.0,9,6.508825814126058,37.362628689923845,5217367.0,5354891.0,5763795.0,5914281.0,5732253.0,0.2899424002939628,0.4507902431375443,6.0
OKORO,Chadic,NO,SOKORO,,16.626620247184,1,16.626620247184,OKORO,0.0,0.0,0.0,0.0,0.0,0.0,0.0,0.0,0.0,0.0,0.0,0,Chad,0.0,19683.344013847694,1,0,0,1,0,0,0,0,0,0.0,1.0,0.0,9,11.361649245405575,17.956931870125942,166895.0,161492.0,153225.0,146013.0,193363.0,0.3667646100307853,0.4526121892176914,1.0
OHEKWE,Bantu,NO,TAWANA,,50.126365736123724,0,0.0,OHEKWE,0.0,0.0,0.0,0.0,0.0,0.0,0.0,0.0,0.0,0.0,0.0,0,Botswana,0.0,105235.52174179112,1,0,1,0,0,0,0,0,0,1.0,3.0,0.0,7,-21.716603628590697,24.30353823746658,66421.0,67329.0,77035.0,71965.0,67098.0,0.31604670740833124,0.4442760949322358,1.0
OGADEN,Cushitic,NO,ISAAQ,,30.992189128430315,0,0.0,OGADEN,0.0,0.0,0.0,0.0,0.0,0.0,0.0,0.0,0.0,0.0,0.0,0,Ethiopia,0.0,173359.11523988858,2,0,0,0,0,1,1,0,0,0.0,0.0,1.0,9,6.530110123786272,44.10133447835797,2215585.0,2262937.0,2365303.0,2408201.0,837444.0,0.5342844499110804,0.667574081286713,1.0
ODODOP,Bantu,NO,EFIK,,29.992435454052647,0,5.881764157519,ODODOP,0.0,0.0,0.0,0.0,0.0,0.0,0.0,0.0,0.0,0.0,0.0,0,Nigeria,1.0,2075.1135992316204,2,0,1,0,1,0,0,0,0,0.0,0.0,1.0,5,5.21845129586653,8.418866228693302,180247.0,203758.0,203355.0,209674.0,223678.0,0.7325850526654789,0.9015167962341059,1.0
NZANKARA,Adamawa-Ubangian,NO,NZAKARA,,72.94128975902755,1,72.94128975902755,NZANKARA,0.0,0.0,0.0,0.0,0.0,0.0,0.0,0.0,0.0,0.0,0.0,0,Central African Rep,0.0,10806.012655567498,2,1,0,1,0,0,0,0,0,0.0,0.0,0.0,4,4.718704819616823,22.82201464313801,156777.0,171055.0,175653.0,168949.0,178473.0,0.6051700458218369,0.8062592382735514,2.0
NYORO,Bantu,NO,NYORO,,46.26275045356741,1,46.26275045356741,NYORO,0.0,0.0,0.0,0.0,0.0,0.0,0.0,0.0,0.0,0.0,0.0,0,Uganda,0.0,13865.348105071336,2,1,1,0,0,0,0,0,0,1.0,0.0,0.0,6,1.737416584364441,31.69135584725006,1206881.0,1380892.0,1418853.0,1462917.0,1520265.0,0.4997984474648007,0.7120078736366997,1.0
NYIMA,"Semitic: Arab, Bedouin",NO,BAGGARA,,50.908853014043174,0,49.091146985938074,NYIMA,0.0,0.0,0.0,0.0,0.0,0.0,0.0,0.0,0.0,0.0,0.0,0,Sudan,0.0,3659.7924145225643,1,0,1,0,0,0,0,0,0,0.0,0.0,0.0,6,12.000504571282974,29.373641648017287,61517.0,96028.0,108544.0,108888.0,125660.0,0.4813667051366339,0.6134339425701749,1.0
NYASA,Bantu,NO,NYANJA,,57.66552703187088,0,0.0,NYASA,0.0,0.0,0.0,0.0,30848.0,15424.0,33119.0,51801.0,0.0,131192.0,131192.0,1,Mozambique,0.0,13542.421516082648,3,0,1,0,1,0,0,1,0,0.0,0.0,0.0,4,-12.24256782714602,34.953305651375175,518440.0,534777.0,547134.0,561514.0,701793.0,0.38757641851453634,0.5831317946301948,2.0
NYARI,Chari-Nile,NO,MABENDI,,37.88743090164107,0,0.0,NYARI,0.0,0.0,0.0,0.0,0.0,0.0,0.0,0.0,0.0,0.0,0.0,0,Dem Rep of the Congo,0.0,4237.877679990536,1,1,0,0,0,0,0,0,0,0.0,0.0,0.0,5,2.177626925914296,30.153944974041362,308112.0,325731.0,333395.0,348774.0,357634.0,0.32398136240978925,0.5374369585785054,2.0
NYANJA,Bantu,NO,NYANJA,,50.22904814701201,1,50.22904814701201,NYANJA,0.0,0.0,0.0,82781.0,511.0,256.0,549.0,859.0,82781.0,2175.0,84956.0,1,Malawi,0.0,24667.261938032363,2,0,1,0,0,0,0,1,0,1.0,0.0,0.0,5,-15.719471379035017,35.42023441472772,5268474.0,5452770.0,5641922.0,6126499.0,5797485.0,0.44018262937904734,0.6198925892082249,1.0
NYANGIYA,Nilotic,NO,DODOTH,,80.06094568410023,0,0.0,NYANGIYA,0.0,0.0,0.0,0.0,0.0,0.0,0.0,0.0,0.0,0.0,0.0,0,Uganda,0.0,2096.094659982746,1,0,1,0,0,0,0,0,0,0.0,0.0,0.0,3,3.779671272795886,33.71239906248443,47785.0,38129.0,37066.0,33733.0,32350.0,0.40326592670223577,0.6156171597116362,1.0
NYANEKA,Bantu,NO,NYANEKA-HUMBE,,73.20387750054898,1,73.20387750054898,NYANEKA,0.0,0.0,0.0,0.0,0.0,0.0,0.0,0.0,0.0,0.0,0.0,0,Angola,0.0,42528.687826118134,1,0,0,0,0,0,0,1,0,0.0,0.0,0.0,5,-15.550917906803324,13.956192237612584,1338986.0,1358167.0,1472447.0,1593544.0,1605595.0,0.2856546039796522,0.4497393132125131,1.0
NYAMWEZI,Bantu,NO,NYAMWEZI,,89.17864144744719,1,89.17864144744719,NYAMWEZI,0.0,0.0,0.0,0.0,13501.0,6751.0,14495.0,22672.0,0.0,57419.0,57419.0,1,Tanzania,0.0,87906.09622115144,1,0,0,0,1,0,0,0,0,2.0,4.0,0.0,10,-5.072887456905933,32.81408809351362,3768471.0,3873387.0,3979155.0,4083873.0,4182208.0,0.46925037348306553,0.6765872727624914,1.0
NYAKYUSA,Bantu,NO,NYAKYUSA,,82.43905304843389,1,82.43905304843389,NYAKYUSA,0.0,0.0,0.0,0.0,2455.0,1227.0,2635.0,4122.0,0.0,10439.0,10439.0,1,Tanzania,0.0,7810.554620306289,2,0,1,0,1,0,0,0,0,0.0,0.0,0.0,5,-9.289587925585058,33.705516814401896,1027122.0,1057019.0,1083297.0,1097303.0,1143337.0,0.19649133009226738,0.31326854297254947,5.0
NUSAN,Bantu,NO,TAWANA,,5.247893972265459,0,0.0,NUSAN,0.0,0.0,0.0,0.0,0.0,0.0,0.0,0.0,0.0,0.0,0.0,0,South Africa,0.0,141257.85078774372,2,0,1,0,1,0,0,0,0,0.0,1.0,0.0,9,-25.73832086252822,20.47184268380512,65625.0,65921.0,69626.0,65449.0,65691.0,0.2322368843346772,0.32111447475881433,1.0
NUPE,Bantoid,NO,NUPE,,94.40406405783501,1,94.40406405783501,NUPE,318.0,0.0,50768.0,7465.0,0.0,0.0,0.0,0.0,58551.0,0.0,58551.0,1,Nigeria,1.0,25575.226152728144,1,0,1,0,0,0,0,0,0,0.0,0.0,0.0,6,9.102860193900915,5.762851175638515,2076525.0,2135862.0,2060839.0,2111249.0,2250675.0,0.55949274715684,0.6812582143181368,1.0
NUNUMA,Voltaic,NO,NUNA,,62.88438863018012,0,0.0,NUNUMA,0.0,0.0,0.0,0.0,0.0,0.0,0.0,0.0,0.0,0.0,0.0,0,Burkina Faso,1.0,13530.706018193374,1,0,0,1,0,0,0,0,0,0.0,0.0,0.0,5,11.5100852371062,-2.090372887460017,598416.0,617071.0,636024.0,653548.0,639336.0,0.49069078157902885,0.6040588855211817,1.0
NUKWE,Bantu,NO,MBUKUSHU,"GOVA, KUSSO",42.76236776922136,0,0.0,NUKWE,0.0,0.0,0.0,0.0,0.0,0.0,0.0,0.0,0.0,0.0,0.0,0,Angola,0.0,20409.25583358483,3,0,1,0,1,0,0,1,0,0.0,0.0,0.0,5,-17.77723189841681,22.80675275496188,38155.0,37319.0,38033.0,37519.0,55203.0,0.35424127304233705,0.4983609469190387,1.0
NUER,Nilotic,NO,NUER,,60.19544129357013,1,60.19544129357013,NUER,0.0,0.0,0.0,0.0,0.0,0.0,0.0,0.0,0.0,0.0,0.0,0,South Sudan,0.0,74767.36510338921,2,0,1,0,0,1,0,0,0,0.0,0.0,1.0,7,8.532238340201015,31.76772819871082,1750294.0,1834869.0,1851011.0,1932175.0,1068090.0,0.5257965790217699,0.6380453509329941,1.0
NSUNGLI,Bantoid,NO,KAMKAM,,47.53009788701994,0,0.0,NSUNGLI,0.0,0.0,0.0,0.0,0.0,0.0,0.0,0.0,0.0,0.0,0.0,0,Cameroon,0.0,1997.575656896609,2,0,1,0,1,0,0,0,0,0.0,0.0,0.0,4,6.49437144840868,11.147367216316615,107761.0,125065.0,127094.0,136210.0,141396.0,0.3867748532859929,0.5999757425048098,6.0
NSENGA,Bantu,NO,NSENGA,,73.79351728506421,1,73.79351728506421,NSENGA,0.0,0.0,0.0,0.0,20.0,10.0,22.0,34.0,0.0,86.0,86.0,1,Zambia,0.0,16937.01435148493,2,0,1,0,0,0,0,1,0,0.0,0.0,0.0,5,-14.888711094691494,30.534145233415874,340177.0,315325.0,327195.0,340024.0,394335.0,0.420733532363348,0.58484164340837,2.0
NSAW,Bantoid,NO,KOM,,93.54923839511261,0,0.0,NSAW,0.0,0.0,0.0,471.0,0.0,0.0,0.0,0.0,471.0,0.0,471.0,1,Cameroon,0.0,2268.683553030508,1,0,0,0,1,0,0,0,0,0.0,0.0,0.0,5,6.25416402001089,10.829387740066336,372293.0,378896.0,370697.0,375823.0,384705.0,0.28717179938928405,0.4563086666277985,6.0
NONO,Northern Mande,NO,DJENNENKE,,53.63082849330381,0,0.0,NONO,0.0,0.0,0.0,0.0,0.0,0.0,0.0,0.0,0.0,0.0,0.0,0,Mali,1.0,2884.5398531157402,1,0,0,1,0,0,0,0,0,0.0,0.0,0.0,4,13.963726448093988,-4.121292843039175,117910.0,122875.0,126707.0,129182.0,128458.0,0.43204884051864,0.5438191227105567,1.0
NKUNDO,Bantu,NO,KOTE,,33.67628921080792,0,0.0,NKUNDO,0.0,0.0,0.0,0.0,0.0,0.0,0.0,0.0,0.0,0.0,0.0,0,Dem Rep of the Congo,0.0,32540.918414226617,1,1,0,0,0,0,0,0,0,0.0,0.0,0.0,5,-0.317358768537642,19.491543118554304,341475.0,345696.0,353129.0,356777.0,365439.0,0.6966998310566875,0.8839583442734863,1.0
NKOYA,Bantu,NO,NKOYA,,18.380713581252238,1,18.380713581252238,NKOYA,0.0,0.0,0.0,0.0,0.0,0.0,0.0,0.0,0.0,0.0,0.0,0,Zambia,0.0,14827.676749449329,1,0,1,0,0,0,0,0,0,0.0,0.0,0.0,5,-14.831056145785332,24.324247570541832,120226.0,119103.0,122634.0,129335.0,134250.0,0.32821222228424696,0.47920593486588703,1.0
NKOLE,Bantu,NO,RUNYANKOLE,,59.601617160915964,0,0.0,NKOLE,0.0,0.0,0.0,0.0,0.0,0.0,0.0,0.0,0.0,0.0,0.0,0,Uganda,0.0,16331.791443279395,2,0,1,0,1,0,0,0,0,0.0,0.0,0.0,6,-0.571755484237882,30.498910935768098,3550032.0,3580936.0,3692202.0,3790976.0,3560921.0,0.2057572105948393,0.3886029237379619,2.0
NGWATO,Bantu,NO,TAWANA,,99.97276928010005,0,0.0,NGWATO,0.0,0.0,0.0,0.0,0.0,0.0,0.0,0.0,0.0,0.0,0.0,0,Botswana,0.0,63180.01433362095,1,0,1,0,0,0,0,0,0,0.0,1.0,0.0,7,-22.64492322598111,27.017371147652995,574639.0,587343.0,568846.0,559043.0,567930.0,0.28219666311637454,0.4072969305221901,1.0
NGWAKETSE,Bantu,NO,TAWANA,,100.0,0,0.0,NGWAKETSE,0.0,0.0,0.0,0.0,0.0,0.0,0.0,0.0,0.0,0.0,0.0,0,Botswana,0.0,15893.955480038772,1,0,1,0,0,0,0,0,0,1.0,0.0,0.0,5,-25.242009892706406,25.240582784985666,693595.0,705268.0,711678.0,716778.0,736216.0,0.23358265681418952,0.3460806173453206,1.0
NGURU,Bantu,NO,NGULU,NGULA,72.05859268761155,0,0.0,NGURU,0.0,0.0,0.0,0.0,859.0,430.0,922.0,1443.0,0.0,3654.0,3654.0,1,Tanzania,0.0,10883.277867480278,1,0,0,0,1,0,0,0,0,0.0,0.0,0.0,5,-6.136111723315105,37.607304606009826,444216.0,458541.0,473054.0,503756.0,502092.0,0.47636737860812134,0.6635352709148727,1.0
NGUMBE,Bantu,NO,NYANEKA-HUMBE,,26.373196581578785,0,0.0,NGUMBE,0.0,0.0,0.0,6096.0,0.0,0.0,0.0,0.0,6096.0,0.0,6096.0,1,Angola,0.0,34263.63998378256,1,0,0,0,0,0,0,1,0,0.0,0.0,0.0,5,-15.173400409992347,15.197793199795854,617873.0,638075.0,690120.0,732038.0,717899.0,0.3003190606537859,0.45091170951892934,1.0
NGUMBA,Bantu,NO,OKAK,,48.4098774060845,0,37.667442571118,NGUMBA,0.0,0.0,0.0,0.0,0.0,0.0,0.0,0.0,0.0,0.0,0.0,0,Cameroon,0.0,14414.569396620225,2,0,0,0,1,0,0,0,1,0.0,0.0,1.0,5,2.479835901657491,10.42815864833819,210846.0,202488.0,199786.0,184877.0,188066.0,0.5815153258195507,0.8050857897622858,2.0
NGONYELU,Bantu,NO,NKANGALA,,42.119417768082855,0,0.0,NGONYELU,0.0,0.0,0.0,393.0,0.0,0.0,0.0,0.0,393.0,0.0,393.0,1,Angola,0.0,64033.923655388855,1,0,0,0,0,0,0,1,0,0.0,1.0,0.0,6,-14.496209599760554,16.938593133458223,662445.0,703217.0,763223.0,812343.0,740718.0,0.25131446199216173,0.39627004736428545,2.0
NGONGO,Bantu,NO,MBALA,,70.2945227619124,0,15.767201127964952,NGONGO,0.0,0.0,0.0,0.0,0.0,0.0,0.0,0.0,0.0,0.0,0.0,0,Dem Rep of the Congo,0.0,3252.2598399688072,1,1,0,0,0,0,0,0,0,0.0,0.0,0.0,3,-5.328946727803363,18.38645603789676,160087.0,185107.0,195129.0,199858.0,204589.0,0.5663476715646236,0.7854153861939689,5.0
NGOMBE,Bantu,NO,KUTU,,43.87612101563236,0,0.0,NGOMBE,0.0,0.0,225.0,235.0,0.0,0.0,0.0,0.0,460.0,0.0,460.0,1,Dem Rep of the Congo,0.0,12764.085320492966,1,1,0,0,0,0,0,0,0,0.0,0.0,0.0,2,-0.895764045560766,21.468571627691126,279285.0,286712.0,292277.0,299111.0,306568.0,0.6456754568193235,0.8580232491208976,2.0
NGIZIM,Cushitic,NO,KAREKARE,,40.379709423421914,0,0.314501347205953,NGIZIM,0.0,0.0,0.0,36.0,0.0,0.0,0.0,0.0,36.0,0.0,36.0,1,Nigeria,1.0,7959.687519342573,1,0,1,0,0,0,0,0,0,0.0,0.0,0.0,4,12.124608346759757,10.80004326442542,893727.0,1033090.0,998231.0,1023271.0,1092161.0,0.4073921771631839,0.5277872691444397,1.0
NGINDO,Bantu,NO,NGINDO,,81.95964848134295,1,81.95964848134295,NGINDO,0.0,0.0,0.0,0.0,17715.0,8858.0,19019.0,29748.0,0.0,75340.0,75340.0,1,Tanzania,0.0,51507.53497794713,1,0,0,0,1,0,0,0,0,0.0,0.0,0.0,9,-9.37514240196618,37.86930885360089,296488.0,299282.0,303176.0,300004.0,260107.0,0.6092598580457793,0.8196180000860205,2.0
NGERE,Kwa,NO,"KRAN, NGERE",,57.1623759714214,1,57.1623759714214,NGERE,0.0,0.0,359.0,155.0,0.0,0.0,0.0,0.0,514.0,0.0,514.0,1,Cote d'Ivoire,1.0,26499.45527451026,2,0,0,1,0,1,0,0,0,1.0,7.0,0.0,7,6.856040083850942,-8.023418640008822,2087954.0,2122529.0,2173588.0,2258843.0,2412996.0,0.6132501506784033,0.7914105300676001,2.0
NGE,Kru,NO,BASA,,55.73711640873283,0,0.0,NGE,0.0,0.0,0.0,0.0,0.0,0.0,0.0,0.0,0.0,0.0,0.0,0,Nigeria,1.0,1946.2538437406633,1,0,1,0,0,0,0,0,0,0.0,0.0,0.0,4,7.592256661189434,6.981398608942628,260266.0,221550.0,213745.0,219019.0,233532.0,0.6580000647068439,0.8266860177024302,2.0
NGBELE,Adamawa-Ubangian,NO,ZANDE AVUNGARA,,41.192939624244,0,0.0,NGBELE,0.0,0.0,0.0,0.0,0.0,0.0,0.0,0.0,0.0,0.0,0.0,0,Dem Rep of the Congo,0.0,2463.378623540444,1,1,0,0,0,0,0,0,0,0.0,0.0,0.0,5,2.884491112957492,28.33883687540968,36438.0,17685.0,17970.0,13897.0,14424.0,0.5893639136003977,0.8045925798815289,2.0
NGBANDI,Adamawa-Ubangian,NO,NGBANDI,,32.880790859886545,1,32.880790859886545,NGBANDI,0.0,0.0,0.0,588.0,0.0,0.0,0.0,0.0,588.0,0.0,588.0,1,Dem Rep of the Congo,0.0,27806.245563826775,2,1,0,1,0,0,0,0,0,0.0,1.0,0.0,10,3.766859141312998,21.8328061028299,565389.0,602905.0,620545.0,650119.0,653383.0,0.6087511957296875,0.8220699710341073,2.0
NGANDU,Bantu,NO,NGANDU,,20.788191179405157,1,20.788191179405157,NGANDU,0.0,0.0,0.0,0.0,0.0,0.0,0.0,0.0,0.0,0.0,0.0,0,Dem Rep of the Congo,0.0,53983.66624883396,1,1,0,0,0,0,0,0,0,0.0,0.0,0.0,9,0.026797472963884,23.35865484214404,769715.0,784449.0,800965.0,799317.0,820238.0,0.6389130687668304,0.8557723150641533,2.0
NGAMA,Songhai,NO,NGAM GIR BOR,,61.455073031584796,0,12.110089636026553,NGAMA,0.0,0.0,0.0,0.0,0.0,0.0,0.0,0.0,0.0,0.0,0.0,0,Central African Rep,0.0,13503.248533347747,1,0,0,1,0,0,0,0,0,0.0,0.0,0.0,5,7.65411664685096,17.463438516266073,99574.0,98679.0,94008.0,85540.0,78157.0,0.5010326234001505,0.6362247401224983,1.0
NGALA,Bantu,NO,NDOLO,,39.462364695991006,0,2.720846347121979,NGALA,0.0,0.0,0.0,549.0,0.0,0.0,0.0,0.0,549.0,0.0,549.0,1,Dem Rep of the Congo,0.0,52190.35668244397,2,1,0,1,0,0,0,0,0,0.0,0.0,0.0,7,1.269527904378549,18.86253474176335,1005998.0,1019054.0,1047281.0,1134626.0,1161584.0,0.6709875444111532,0.8688313650187468,1.0
NEN,Bantu,NO,DUMBULE,,82.46758883191708,0,0.0,NEN,0.0,0.0,0.0,659.0,0.0,0.0,0.0,0.0,659.0,0.0,659.0,1,Cameroon,0.0,3921.732175520828,1,0,0,0,1,0,0,0,0,0.0,0.0,0.0,4,4.703227620532589,10.77599147081326,86021.0,85482.0,91220.0,90723.0,93681.0,0.6000001166868075,0.8160871115814414,6.0
NEFUSA,"Semitic: Arab, Bedouin",NO,TRIPOLITANIAN,,54.12773269620801,0,10.06859045946647,NEFUSA,0.0,0.0,0.0,0.0,0.0,0.0,0.0,0.0,0.0,0.0,0.0,0,Libya,0.0,14161.013279671715,2,0,0,1,0,0,1,0,0,0.0,0.0,1.0,2,31.76479973084855,11.502957560537158,126213.0,170173.0,177909.0,188006.0,187979.0,0.2214170222193247,0.3030874124298151,1.0
NDUKA,Adamawa-Ubangian,NO,BANDA,,33.55215049415203,0,0.0,NDUKA,0.0,0.0,0.0,0.0,0.0,0.0,0.0,0.0,0.0,0.0,0.0,0,Central African Rep,0.0,43050.09692315307,1,0,0,1,0,0,0,0,0,0.0,0.0,1.0,4,8.304578801080918,19.251510233605615,268417.0,271093.0,276395.0,277891.0,318782.0,0.5050730963173152,0.6423338308274371,1.0
NDORO,Bantoid,NO,JIBU,,18.54709805283175,0,0.633266603916756,NDORO,0.0,0.0,0.0,0.0,0.0,0.0,0.0,0.0,0.0,0.0,0.0,0,Nigeria,1.0,1749.1663900077376,1,0,1,0,0,0,0,0,0,0.0,0.0,0.0,4,7.550524202818038,10.844100159664366,10541.0,12024.0,11099.0,11108.0,11815.0,0.5700000236455811,0.7645994911470945,6.0
NDOMBE,Bantu,NO,MONDOMBE,,22.897525089569495,1,22.897525089569495,NDOMBE,0.0,0.0,0.0,3736.0,0.0,0.0,0.0,0.0,3736.0,0.0,3736.0,1,Angola,0.0,41432.911002256165,1,0,0,0,0,0,0,1,0,0.0,0.0,0.0,5,-13.383779579245054,13.564151075550317,1714329.0,1757559.0,2015348.0,2159001.0,2202397.0,0.44255013111799607,0.6528646307939979,2.0
NDOKO,Bantu,NO,NGOMBE,,45.481559491979446,0,23.330704774145268,NDOKO,0.0,0.0,0.0,0.0,0.0,0.0,0.0,0.0,0.0,0.0,0.0,0,Dem Rep of the Congo,0.0,23037.334125531263,1,1,0,0,0,0,0,0,0,0.0,0.0,0.0,7,2.063243247924478,20.817202150188603,545654.0,549127.0,560137.0,573742.0,590324.0,0.6618946615548554,0.8609619683561898,1.0
NDOGO,Adamawa-Ubangian,NO,NDOGO,,24.036014312173496,1,24.036014312173496,NDOGO,0.0,0.0,0.0,197.0,0.0,0.0,0.0,0.0,197.0,0.0,197.0,1,South Sudan,0.0,72285.00628186534,3,1,1,1,0,0,0,0,0,0.0,0.0,0.0,8,6.959769026110476,26.925561876549793,374765.0,379739.0,386680.0,373802.0,549966.0,0.5587048905895892,0.7105479345739247,1.0
NDOB,Bantoid,NO,KOM,,69.64335294237767,0,0.0,NDOB,0.0,0.0,0.0,3200.0,0.0,0.0,0.0,0.0,3200.0,0.0,3200.0,1,Cameroon,0.0,2645.624944375262,1,0,0,0,1,0,0,0,0,0.0,0.0,0.0,6,5.942348877292305,10.590077234790709,383846.0,392160.0,383471.0,387947.0,397209.0,0.31939405034317764,0.5232982488401752,1.0
NDEMBU,Kru,NO,NDEMBU,,65.2275461018043,1,65.2275461018043,NDEMBU,0.0,0.0,0.0,393.0,0.0,0.0,0.0,0.0,393.0,0.0,393.0,1,Dem Rep of the Congo,0.0,104006.89911238803,3,1,1,0,0,0,0,1,0,1.0,0.0,0.0,6,-11.612169903568038,24.044311524504327,1081018.0,1110136.0,1117191.0,1125339.0,1095254.0,0.27128904676802257,0.430329899567056,1.0
NDEBELE,Bantu,NO,NDEBELE,MATABELE,41.80153499159493,1,41.80153499159493,NDEBELE,0.0,0.0,0.0,0.0,0.0,0.0,0.0,0.0,0.0,0.0,0.0,0,Zimbabwe,0.0,93846.90044343166,1,0,1,0,0,0,0,0,0,11.0,2.0,0.0,6,-19.71326314773544,28.145977940867375,2108978.0,2178189.0,2225021.0,2124377.0,2158433.0,0.26735738771028156,0.40372174374844355,1.0
NDAU,Bantu,NO,NDAU,,67.72189409149854,1,67.72189409149854,NDAU,0.0,0.0,0.0,0.0,61.0,31.0,66.0,103.0,0.0,261.0,261.0,1,Mozambique,0.0,63445.58260614298,2,0,1,0,0,0,0,1,0,0.0,0.0,1.0,5,-20.24588712986421,33.72076520451869,2313138.0,2359361.0,2402062.0,2246485.0,2259334.0,0.4435515157161888,0.6083790598832783,1.0
NDAMBA,Bantu,NO,HEHE,,51.095348814956544,0,34.994858296581754,NDAMBA,0.0,0.0,0.0,0.0,409.0,205.0,439.0,687.0,0.0,1740.0,1740.0,1,Tanzania,0.0,4444.063798591228,1,0,0,0,1,0,0,0,0,0.0,0.0,0.0,5,-8.57761253917593,35.94016468105459,171508.0,170185.0,166554.0,193450.0,219507.0,0.4850351372840109,0.6527122852008759,1.0
NDAKA,Bantu,NO,BAALI,,57.07180305281852,0,12.763259051350598,NDAKA,0.0,0.0,0.0,0.0,0.0,0.0,0.0,0.0,0.0,0.0,0.0,0,Dem Rep of the Congo,0.0,28614.434326469134,1,1,0,0,0,0,0,0,0,0.0,0.0,0.0,10,1.364175244080793,27.13431285718642,134749.0,124887.0,124845.0,114039.0,115828.0,0.6278351137195031,0.841710379214322,2.0
NAUDEBA,Voltaic,NO,SOLA,,46.27448473409308,0,0.0,NAUDEBA,0.0,0.0,0.0,0.0,0.0,0.0,0.0,0.0,0.0,0.0,0.0,0,Benin,1.0,1175.7994371869447,2,0,0,1,1,0,0,0,0,0.0,0.0,0.0,2,10.078435573854964,1.408735268276414,59383.0,67583.0,70951.0,78382.0,80235.0,0.5383632189906429,0.6708689692368822,1.0
NARON,,,,,0.0,0,0.0,NARON,0.0,0.0,0.0,0.0,0.0,0.0,0.0,0.0,0.0,0.0,0.0,0,Botswana,0.0,48872.23838808327,2,0,1,0,1,0,0,0,0,0.0,0.0,0.0,6,-21.793731671095934,21.291330427033138,32985.0,33580.0,35428.0,39471.0,42384.0,0.2925875625355894,0.40958164072032865,1.0
NANDI,Nilotic,NO,KEYO,,63.779666029798236,0,28.28387669703996,NANDI,0.0,0.0,0.0,0.0,0.0,0.0,0.0,0.0,0.0,0.0,0.0,0,Kenya,0.0,7020.826171128491,1,0,1,0,0,0,0,0,0,0.0,0.0,0.0,7,0.476800695146662,35.23320753535675,2532780.0,2579358.0,2627518.0,2708412.0,2740841.0,0.037196933910575984,0.09778995562768707,2.0
NAMSHI,Adamawa-Ubangian,NO,DII,DURU,23.56036849420664,0,0.0,NAMSHI,0.0,0.0,0.0,0.0,0.0,0.0,0.0,0.0,0.0,0.0,0.0,0,Cameroon,0.0,5034.410603211036,1,0,0,0,1,0,0,0,0,0.0,0.0,0.0,2,8.502321026629554,13.383411234729097,117486.0,123491.0,125219.0,118288.0,121488.0,0.5363655090332031,0.6991386003391717,1.0
NAMIB,,,,,0.0,0,0.0,NAMIB,0.0,0.0,0.0,0.0,0.0,0.0,0.0,0.0,0.0,0.0,0.0,0,Namibia,0.0,49627.41276128449,1,0,0,0,1,0,0,0,0,0.0,8.0,0.0,2,-26.41881365615941,15.720112668393199,13546.0,14032.0,15747.0,16179.0,16615.0,0.010924458270827518,0.05521597167105661,2.0
NAMA,"Khoi: Nama, Bergdama",NO,BERGDAMA,DAMARA,0.373231760980922,0,0.0,NAMA,0.0,0.0,0.0,0.0,0.0,0.0,0.0,0.0,0.0,0.0,0.0,0,Namibia,0.0,263037.86654645065,2,0,1,0,1,0,0,0,0,3.0,21.0,0.0,6,-26.373341615416283,17.649279833425236,214739.0,223717.0,236542.0,241102.0,245679.0,0.1668758246429009,0.2540985755057445,1.0
NALU,West Atlantic,NO,NALU,,42.50645665766491,1,42.50645665766491,NALU,2740.0,3975.0,1272.0,577.0,0.0,0.0,0.0,0.0,8564.0,0.0,8564.0,1,Guinea,1.0,2424.4568971855583,2,0,0,1,0,0,0,1,0,0.0,0.0,0.0,3,11.03612769540298,-14.897082205751456,58182.0,52605.0,54932.0,51787.0,50604.0,0.6048543741414835,0.730838119793513,1.0
NAJI,Maban,NO,MUN,,42.94778237812604,0,0.0,NAJI,0.0,0.0,0.0,0.0,0.0,0.0,0.0,0.0,0.0,0.0,0.0,0,Ethiopia,0.0,4052.395339209101,1,0,0,0,0,1,0,0,0,0.0,0.0,0.0,2,6.298351783152877,35.732032120758234,63414.0,67402.0,76694.0,74705.0,80632.0,0.3861912556470966,0.5606955825607165,6.0
NAIL,"Semitic: Arab, Bedouin",NO,ULED NAIL,,43.621752228659886,1,43.621752228659886,NAIL,0.0,0.0,0.0,0.0,0.0,0.0,0.0,0.0,0.0,0.0,0.0,0,Algeria,0.0,32167.877265222192,1,0,0,1,0,0,0,0,0,0.0,0.0,0.0,6,33.97582477750218,4.532986625496748,478629.0,481864.0,492167.0,500206.0,508582.0,0.14517828369410704,0.20433964255193815,1.0
NAFANA,Voltaic,NO,NAFANA,NAFAANRA,92.69053157593731,1,92.69053157593731,NAFANA,0.0,0.0,0.0,0.0,0.0,0.0,0.0,0.0,0.0,0.0,0.0,0,Ghana,1.0,1877.0497509453207,2,0,1,1,0,0,0,0,0,0.0,0.0,0.0,4,8.304635944638921,-2.397103772497147,53265.0,31467.0,27364.0,24895.0,32532.0,0.6454531804015646,0.7958013748381922,1.0
MZAB,Berber,NO,BENI MZAB,,59.893975953426484,1,59.893975953426484,MZAB,0.0,0.0,0.0,0.0,0.0,0.0,0.0,0.0,0.0,0.0,0.0,0,Algeria,0.0,30263.81052670468,1,0,0,1,0,0,0,0,0,0.0,0.0,1.0,4,32.68551755081222,3.757489985690611,395808.0,405866.0,412868.0,420135.0,427198.0,0.1418807518913394,0.1985390382520592,1.0
MWERA,Bantu,NO,NWERA,,68.91499890216531,0,0.0,MWERA,0.0,0.0,0.0,0.0,2271.0,1135.0,2438.0,3813.0,0.0,9657.0,9657.0,1,Tanzania,0.0,21213.367854150398,2,0,1,0,1,0,0,0,0,0.0,0.0,0.0,3,-9.63120166426051,39.044485427161085,658188.0,686184.0,687834.0,683787.0,704298.0,0.6598334759592421,0.8513693175599029,1.0
MUSGU,Chadic,NO,MUSGU,,61.88183034754194,1,61.88183034754194,MUSGU,0.0,0.0,0.0,0.0,0.0,0.0,0.0,0.0,0.0,0.0,0.0,0,Chad,0.0,7680.748501770202,2,0,0,1,1,0,0,0,0,0.0,0.0,0.0,7,10.994729666289416,15.307458983099718,223539.0,240357.0,252379.0,254870.0,296256.0,0.4018597355441016,0.4951048137971054,1.0
MURLE,Chari-Nile,NO,MURLE,MOLEN,25.114368685053208,1,25.114368685053208,MURLE,0.0,0.0,0.0,0.0,0.0,0.0,0.0,0.0,0.0,0.0,0.0,0,South Sudan,0.0,44777.78791842505,2,0,1,0,0,1,0,0,0,0.0,0.0,0.0,11,6.265835392289825,33.311276938173464,320834.0,327293.0,338810.0,319385.0,142370.0,0.5659828548691626,0.6911577129072658,1.0
MUNDU,Adamawa-Ubangian,NO,DIO,,30.161249698706623,0,25.096508955109194,MUNDU,0.0,0.0,222.0,671.0,0.0,0.0,0.0,0.0,893.0,0.0,893.0,1,South Sudan,0.0,7679.1253370560835,2,1,1,0,0,0,0,0,0,0.0,0.0,0.0,7,4.345630967238035,30.131180533987916,125298.0,97699.0,96400.0,98094.0,77453.0,0.5641574435763889,0.7586608615451389,1.0
MUNDANG,Adamawa-Ubangian,NO,MUNDANG,,59.496060366501936,1,59.496060366501936,MUNDANG,0.0,0.0,0.0,0.0,0.0,0.0,0.0,0.0,0.0,0.0,0.0,0,Chad,0.0,11615.828223591343,1,0,0,0,1,0,0,0,0,0.0,0.0,0.0,6,9.68855186094728,14.675965514383337,857661.0,895577.0,939157.0,961795.0,1164328.0,0.48921813588110885,0.6039170006263161,1.0
MUMUYE,Adamawa-Ubangian,NO,MUMUYE,,35.09613147486243,1,35.09613147486243,MUMUYE,0.0,0.0,588.0,18.0,0.0,0.0,0.0,0.0,606.0,0.0,606.0,1,Nigeria,1.0,5322.269503767527,1,0,1,0,0,0,0,0,0,0.0,0.0,0.0,6,9.013145296617026,11.81844804344343,519506.0,564992.0,544938.0,558436.0,595985.0,0.5362358450341107,0.6820726644306283,2.0
MUM,Bantoid,NO,BAMUN,,52.739825943371045,0,0.0,MUM,0.0,0.0,3059.0,188.0,0.0,0.0,0.0,0.0,3247.0,0.0,3247.0,1,Cameroon,0.0,6100.274544256254,1,0,0,0,1,0,0,0,0,0.0,0.0,0.0,8,5.67429862846627,11.054528629733491,375580.0,388394.0,376599.0,398705.0,409994.0,0.557165239337568,0.77625696122871,2.0
MUBI,Chadic,NO,BIRGIT,,28.74169735274579,0,25.765045478608616,MUBI,0.0,0.0,0.0,0.0,0.0,0.0,0.0,0.0,0.0,0.0,0.0,0,Chad,0.0,9699.68583607408,1,0,0,1,0,0,0,0,0,0.0,0.0,0.0,4,12.519893943528611,19.655562125670343,89652.0,94499.0,97209.0,102373.0,132108.0,0.32686303900193797,0.3994196981319983,1.0
MPONGWE,Bantu,NO,MYENE,,48.21070689738439,0,0.290360961484374,MPONGWE,0.0,589.0,0.0,4883.0,0.0,0.0,0.0,0.0,5472.0,0.0,5472.0,1,Gabon,0.0,19414.501367323497,1,0,0,1,0,0,0,0,0,0.0,0.0,1.0,2,-0.98688509341956,9.625583770865676,184339.0,188001.0,177637.0,181079.0,217133.0,0.7243501809467918,0.9091912586630897,1.0
MPEZENI,Bantu,NO,MPEZENI'S NGUNI,,45.706918092766,1,45.706918092766,MPEZENI,0.0,0.0,0.0,0.0,0.0,0.0,0.0,0.0,0.0,0.0,0.0,0,Zambia,0.0,8161.787573063096,1,0,1,0,0,0,0,0,0,0.0,0.0,0.0,4,-13.562404797408075,32.386475341350646,620660.0,622428.0,641457.0,647965.0,704805.0,0.39118501996138355,0.5669538737510196,1.0
MOSSI,Voltaic,NO,MOSSI,,74.59412527215665,1,74.59412527215665,MOSSI,0.0,0.0,517.0,157.0,0.0,0.0,0.0,0.0,674.0,0.0,674.0,1,Burkina Faso,1.0,66495.37391733633,2,0,0,1,1,0,0,0,0,2.0,1.0,0.0,11,12.726537564652153,-1.170425803688555,8428522.0,8695564.0,8965310.0,9235590.0,9112814.0,0.4345151482000803,0.5379616156459384,1.0
MORU,Chari-Nile,NO,MORU,,45.5689709834271,1,45.5689709834271,MORU,0.0,0.0,0.0,0.0,0.0,0.0,0.0,0.0,0.0,0.0,0.0,0,South Sudan,0.0,10057.662594431784,1,0,1,0,0,0,0,0,0,0.0,0.0,0.0,4,5.253263093494773,30.41034560096448,123703.0,129003.0,135871.0,139869.0,165603.0,0.5758501405734497,0.7280588604231876,1.0
MOROCCANS,"Semitic: Arab, Bedouin",NO,MOROCCAN,,97.68372366827398,1,97.68372366827398,MOROCCANS,0.0,0.0,0.0,0.0,0.0,0.0,0.0,0.0,0.0,0.0,0.0,0,Morocco,0.0,71084.28565821156,2,0,0,1,0,0,0,0,1,0.0,0.0,1.0,4,32.744969496464854,-7.578817513719881,18569681.0,18771378.0,18975632.0,19154022.0,19726281.0,0.16891981948518553,0.2523625052199509,1.0
MONGO,Bantu,NO,NTOMBA,,48.566140293708074,0,5.240669761168506,MONGO,0.0,0.0,0.0,118.0,0.0,0.0,0.0,0.0,118.0,0.0,118.0,1,Dem Rep of the Congo,0.0,42489.628947567624,1,1,0,0,0,0,0,0,0,0.0,0.0,0.0,7,0.94008452631521,21.08715259480788,423351.0,418906.0,430201.0,389704.0,398390.0,0.6625631678371634,0.8671187982955689,1.0
MONDARI,Nilotic,NO,MANDARI,,59.670136829446264,1,59.670136829446264,MONDARI,0.0,0.0,0.0,0.0,0.0,0.0,0.0,0.0,0.0,0.0,0.0,0,South Sudan,0.0,11563.458338091248,1,0,1,0,0,0,0,0,0,0.0,0.0,0.0,6,5.855647763065178,31.393587452316766,206072.0,202793.0,210696.0,212230.0,222614.0,0.5552834623639605,0.6756966562339143,1.0
MOMBERA,Bantu,NO,TUMBUKA,,76.0600473600086,0,0.0,MOMBERA,0.0,0.0,0.0,0.0,0.0,0.0,0.0,0.0,0.0,0.0,0.0,0,Malawi,0.0,10340.0931301006,1,0,1,0,0,0,0,0,0,0.0,0.0,0.0,3,-11.988462098955264,33.4738017176999,899812.0,932716.0,962545.0,890931.0,1005973.0,0.2080386115964861,0.37393212677263715,1.0
MOBER,Saharan,NO,KANURI,,100.0,0,0.0,MOBER,0.0,0.0,0.0,0.0,0.0,0.0,0.0,0.0,0.0,0.0,0.0,0,Niger,1.0,3219.260736983569,2,0,1,1,0,0,0,0,0,0.0,0.0,0.0,3,13.432037407957228,12.55090997229596,184144.0,183463.0,209768.0,216302.0,175441.0,0.343655774710992,0.4400082595340351,1.0
MOBA,Voltaic,NO,GURMA,,36.99727372505824,0,35.099825683514716,MOBA,0.0,0.0,0.0,0.0,0.0,0.0,0.0,0.0,0.0,0.0,0.0,0,Togo,1.0,4315.006430539215,3,0,1,1,1,0,0,0,0,0.0,0.0,0.0,7,10.661172184893239,0.469578196620464,542325.0,555943.0,560709.0,548205.0,558740.0,0.47003552552397393,0.5744109852168838,1.0
MITUKU,Bantu,NO,MITUKU,,47.388544811328295,1,47.388544811328295,MITUKU,0.0,0.0,0.0,0.0,0.0,0.0,0.0,0.0,0.0,0.0,0.0,0,Dem Rep of the Congo,0.0,11582.292125881762,1,1,0,0,0,0,0,0,0,0.0,0.0,0.0,3,-1.212362963989515,25.10327009948252,43854.0,43903.0,44730.0,36946.0,37454.0,0.6488128957302666,0.8619582071919073,1.0
MITTU,Chari-Nile,NO,GBERI,MODA,41.70642362819726,0,14.555458512427212,MITTU,0.0,0.0,0.0,0.0,0.0,0.0,0.0,0.0,0.0,0.0,0.0,0,South Sudan,0.0,24862.14985692069,2,1,1,0,0,0,0,0,0,0.0,0.0,0.0,7,5.808700174115276,29.738774797800996,553669.0,606036.0,631924.0,675044.0,467006.0,0.5707120408154536,0.7200413897016049,1.0
MINIANKA,Voltaic,NO,FODONON,,27.31006829226814,0,19.00642031250038,MINIANKA,0.0,0.0,0.0,35.0,0.0,0.0,0.0,0.0,35.0,0.0,35.0,1,Mali,1.0,43879.75234911952,1,0,0,1,0,0,0,0,0,1.0,0.0,0.0,6,11.758459157956768,-5.29925920803487,2522388.0,2595282.0,2673354.0,2736386.0,2779161.0,0.5017351917186695,0.6279549024589225,1.0
MIMI,"Semitic: Arab, Bedouin",NO,SHUWA,,46.014552890092375,0,42.19392716896982,MIMI,0.0,0.0,0.0,0.0,0.0,0.0,0.0,0.0,0.0,0.0,0.0,0,Chad,0.0,6804.087195332591,1,0,0,1,0,0,0,0,0,0.0,0.0,0.0,3,14.786964935976034,20.278702649808537,28302.0,22919.0,19282.0,14311.0,20308.0,0.31467549228540576,0.3933120023915622,1.0
MIJERTEIN,Cushitic,NO,DAAROOD,,89.21077190128908,0,0.0,MIJERTEIN,0.0,0.0,0.0,0.0,0.0,0.0,0.0,0.0,0.0,0.0,0.0,0,Somalia,0.0,199998.64532853258,3,0,1,0,0,1,1,0,0,0.0,0.0,0.0,3,9.018182962335418,48.77411419488969,1483947.0,1511128.0,1909570.0,1928820.0,1846919.0,0.5184471396203993,0.6724504168798819,1.0
MIDOBI,Saharan,NO,BERTI,,52.49570813540198,0,25.289389508461323,MIDOBI,0.0,0.0,0.0,0.0,0.0,0.0,0.0,0.0,0.0,0.0,0.0,0,Sudan,0.0,11480.75759204927,1,0,1,0,0,0,0,0,0,0.0,0.0,0.0,3,15.376821876488282,26.624058203397418,21184.0,44404.0,86126.0,87554.0,100686.0,0.3274766967527682,0.43002720444168824,1.0
MESSIRIA,"Semitic: Arab, Bedouin",NO,BAGGARA,,84.42147423488497,0,0.0,MESSIRIA,0.0,0.0,0.0,0.0,0.0,0.0,0.0,0.0,0.0,0.0,0.0,0,Sudan,0.0,48361.75335434353,1,0,1,0,0,0,0,0,0,0.0,0.0,1.0,6,11.08658916659977,28.34224767990508,748603.0,701494.0,692497.0,666001.0,768612.0,0.4246078705370309,0.5300177296217102,1.0
MERU,Bantu,NO,MERU,RWO,80.59317426571425,1,80.59317426571425,MERU,0.0,0.0,0.0,0.0,20.0,10.0,22.0,34.0,0.0,86.0,86.0,1,Kenya,0.0,15508.364687103825,1,0,1,0,0,0,0,0,0,0.0,0.0,0.0,7,0.016661004277863,38.1044420046617,2089840.0,2132535.0,2171723.0,2254209.0,2290990.0,0.3884441807525475,0.5430396455866152,1.0
MERINA,Malagasy,NO,MERINA,,43.91384308571485,1,43.91384308571485,MERINA,0.0,1953.0,1683.0,12009.0,0.0,0.0,6906.0,6659.0,15645.0,13565.0,29210.0,1,Madagascar,0.0,90301.58335018471,1,0,0,1,0,0,0,0,0,2.0,0.0,0.0,5,-18.328180646331536,46.978997630662136,7198392.0,7390614.0,7575839.0,7734479.0,7919125.0,0.3075181184886462,0.4555544926654491,6.0
MERARIT,Chari-Nile,NO,TAMA,,35.52109491242244,0,31.6047641826663,MERARIT,0.0,0.0,0.0,0.0,0.0,0.0,0.0,0.0,0.0,0.0,0.0,0,Chad,0.0,13124.417422885452,2,0,1,1,0,0,0,0,0,0.0,0.0,0.0,5,14.420901812063674,21.543279061109807,259503.0,266729.0,273981.0,285983.0,397905.0,0.38081381728978597,0.48835732336184584,1.0
MENDE,Southern Mande,YES,MENDE,,75.05898002328874,1,75.05898002328874,MENDE,0.0,0.0,2159.0,9311.0,0.0,0.0,0.0,0.0,11470.0,0.0,11470.0,1,Sierra Leone,1.0,22946.169961105345,3,0,1,1,0,1,0,0,0,0.0,15.0,0.0,7,7.951305343621737,-11.181677967757018,1765514.0,1654880.0,1676922.0,1690462.0,1731034.0,0.66437993776058,0.8372620189646902,2.0
MENASSER,Berber,NO,BENI MENASSER,,85.43999512170454,1,85.43999512170454,MENASSER,0.0,0.0,0.0,0.0,0.0,0.0,0.0,0.0,0.0,0.0,0.0,0,Algeria,0.0,2098.6966966250397,1,0,0,1,0,0,0,0,0,0.0,0.0,0.0,1,36.447388442583524,2.082020214727458,420311.0,426548.0,435188.0,442689.0,448582.0,0.21130074436832924,0.29275281182650864,6.0
MEKYIBO,Kru,NO,ANYI,,85.73538965690129,0,9.463299209746008,MEKYIBO,0.0,0.0,0.0,0.0,0.0,0.0,0.0,0.0,0.0,0.0,0.0,0,Cote d'Ivoire,1.0,1088.329031158635,1,0,0,1,0,0,0,0,0,0.0,0.0,0.0,2,5.442308472763258,-3.113194086449804,110789.0,111488.0,113761.0,116021.0,125909.0,0.7319543543333906,0.8956472392355656,2.0
MEDJI,Chari-Nile,NO,MEDJE,,44.281502760621784,0,0.0,MEDJI,0.0,0.0,0.0,0.0,0.0,0.0,0.0,0.0,0.0,0.0,0.0,0,Dem Rep of the Congo,0.0,5245.934821378321,1,1,0,0,0,0,0,0,0,0.0,0.0,0.0,5,2.631291334156765,27.28179973878622,386231.0,429994.0,441508.0,485770.0,495094.0,0.5762774654232067,0.8027861575918998,2.0
MEBAN,Nilotic,NO,BURUN,,29.843056026437743,0,0.0,MEBAN,0.0,0.0,0.0,0.0,0.0,0.0,0.0,0.0,0.0,0.0,0.0,0,South Sudan,0.0,22597.665304384776,2,0,1,0,0,1,0,0,0,0.0,0.0,1.0,5,10.292233509100196,33.55802463322481,261477.0,354336.0,331793.0,315968.0,388212.0,0.4791064829803786,0.5862516173531659,1.0
MBWELA,Bantu,NO,MBWELA,,78.76995273726159,1,78.76995273726159,MBWELA,0.0,0.0,0.0,787.0,0.0,0.0,0.0,0.0,787.0,0.0,787.0,1,Angola,0.0,81085.00375541893,1,0,0,0,0,0,0,1,0,0.0,1.0,0.0,7,-15.3011232300138,19.185423868226515,164796.0,158880.0,171297.0,179662.0,158517.0,0.28868159391854076,0.42260894728808385,1.0
MBUNGA,Bantu,NO,MBUNGA,,41.82776229750013,1,41.82776229750013,MBUNGA,0.0,0.0,0.0,0.0,0.0,0.0,0.0,0.0,0.0,0.0,0.0,0,Tanzania,0.0,12752.822852736143,1,0,0,0,1,0,0,0,0,0.0,0.0,0.0,6,-8.107874972063358,36.984258262754004,268164.0,286798.0,301844.0,310398.0,367899.0,0.6323891197633117,0.833708172885407,1.0
MBUNDU,Bantu,NO,BAILUNDU,,18.909763654410707,0,0.0,MBUNDU,0.0,0.0,28184.0,58008.0,0.0,0.0,0.0,0.0,86192.0,0.0,86192.0,1,Angola,0.0,96852.59429051918,1,0,0,0,0,0,0,1,0,0.0,4.0,0.0,7,-12.41778771606626,15.792599913916321,3879289.0,4014978.0,4390749.0,4748566.0,5067724.0,0.15418858795717377,0.31013058720042774,2.0
MBUNDA,Bantu,NO,MBUNDA,,57.04561099950649,1,57.04561099950649,MBUNDA,0.0,0.0,0.0,0.0,0.0,0.0,0.0,0.0,0.0,0.0,0.0,0,Angola,0.0,49306.03410499521,2,0,1,0,0,0,0,1,0,0.0,1.0,0.0,6,-14.43078132457515,21.106975710254495,169386.0,168540.0,178952.0,184117.0,174744.0,0.26953335062850803,0.401605411901741,1.0
MBUM,Fufulde,NO,FULBE,,35.972056162024465,0,15.071161549422857,MBUM,0.0,0.0,0.0,0.0,0.0,0.0,0.0,0.0,0.0,0.0,0.0,0,Cameroon,0.0,21739.045467967077,1,0,0,0,1,0,0,0,0,0.0,0.0,0.0,6,7.458189774516358,13.673059715541036,461223.0,476138.0,514385.0,531728.0,545430.0,0.43648087231968813,0.629766957541423,2.0
MBUKUSHU,Bantu,NO,MBUKUSHU,"GOVA, KUSSO",26.045349526400337,1,26.045349526400337,MBUKUSHU,0.0,0.0,0.0,0.0,0.0,0.0,0.0,0.0,0.0,0.0,0.0,0,Angola,0.0,56750.75118308449,3,0,1,0,1,0,0,1,0,0.0,0.0,0.0,7,-17.31293798310283,21.27827545515773,122297.0,122418.0,130988.0,137852.0,148963.0,0.3304567760226193,0.4746192736379474,1.0
MBUGWE,Nilotic,NO,MAASAI,,59.58870798311373,0,59.09445327088333,MBUGWE,0.0,0.0,0.0,0.0,0.0,0.0,0.0,0.0,0.0,0.0,0.0,0,Tanzania,0.0,2967.8790653447672,1,0,0,0,1,0,0,0,0,0.0,0.0,0.0,3,-3.755000127978503,35.90378945765864,164753.0,170092.0,174110.0,151253.0,119042.0,0.33993605647122704,0.5432372205494328,1.0
